stop_id,stop_name,lat,lon,sequences
1,Alness St at Dolomite Dr,43.779379,-79.475402,107:22
3,Alness St at Flint Rd,43.781744,-79.477584,107:23
8,Atkinson Ave at Rodeo Dr,43.808739,-79.442506,160:48
10,Atkinson Rd at Spring Gate Blvd South Side,43.806428,-79.44158,160:49
11,Anglesey Blvd at Islington Ave,43.664493,-79.531543,48:13
13,Anglesey Blvd at The Kingsway,43.6642,-79.521751,48:10
15,Anglesey Blvd at Pinehurst Cres North Side,43.663562,-79.524999,48:11
16,Anglesey Blvd at Royal York Rd West Side,43.665864,-79.52024,48:9
19,Anglesey Blvd at Wimbleton Rd,43.66478,-79.528983,48:12
21,Annette St at Clendenan Ave,43.662086,-79.472496,26:10
23,Annette St at Dundas St West,43.664325,-79.458835,26:15
24,Annette St at Durie St,43.65934,-79.482958,26:6
26,Annette St at Evelyn Ave East Side,43.661127,-79.474788,26:9
28,Annette St at Gilmour Ave,43.660479,-79.477746,26:8
30,Annette St at High Park Ave,43.662799,-79.46939,26:11
32,Annette St at Indian Road Cres,43.663678,-79.46129,26:14
34,Annette St at Jane St East Side,43.658296,-79.487694,26:4
37,Annette St at Keele St,43.663604,-79.463979,26:13
39,Annette St at Medland St,43.663412,-79.466527,26:12
40,Annette St at Runnymede Rd,43.659969,-79.480162,26:7
42,Annette St at Willard Ave,43.658765,-79.485561,26:5
45,Avenue Rd at Balmoral Ave North Side,43.684707,-79.400532,13:14
47,Avenue Rd at Bloor St West North Side,43.669222,-79.394239,13:8
50,Avenue Rd at Boswell Ave,43.67262,-79.395613,13:9
53,Avenue Rd at Brooke Ave,43.733318,-79.419645,61:5
54,Avenue Rd at Carmichael Ave,43.73762,-79.420776,61:3
56,Avenue Rd at Cottingham St,43.679417,-79.39837,13:12
58,Avenue Rd at Davenport Rd,43.674613,-79.396402,13:10
60,Avenue Rd at Dunblaine Ave,43.736019,-79.420228,61:4
61,Avenue Rd at Dupont St,43.677107,-79.397418,13:11
63,Avenue Rd at Edmund Ave North Side,43.682897,-79.399784,13:13
65,Avenue Rd at Heath St West,43.688623,-79.402152,13:16
70,Avenue Rd at St Clair Ave West North Side,43.686954,-79.401452,13:15
72,Avenue Rd at Wilson Ave South Side,43.739264,-79.421518,61:2
75,Baldoon Rd at Finch Ave East,43.815102,-79.232194,339:4
80,Bathurst St at Alcina Ave,43.680169,-79.417216,307:53
81,Bathurst St at Allingham Gardens South Side,43.739895,-79.434758,307:28
85,4979 Bathurst St,43.775615,-79.443268,160:20|7:47
86,6030 Bathurst St,43.787654,-79.446634,307:7
87,Bathurst St at Ava Rd,43.697848,-79.424179,7:13
89,Bathurst St at Raoul Wallenberg Rd,43.750654,-79.437155,160:10|7:37
90,Bathurst St at Bainbridge Ave,43.75091,-79.437474,307:22
91,Bathurst St at Bannockburn Ave,43.731194,-79.43241,7:29
92,Bathurst St at Barton Ave,43.668015,-79.412233,7:2
94,Bathurst St at Baycrest Ave,43.729521,-79.432022,7:28
95,Bathurst St at Baycrest Ave,43.729709,-79.43227,307:32|400:14
98,Bathurst St at Briar Hill Ave,43.707753,-79.426888,14:13|7:17
99,Bathurst St at Briar Hill Ave,43.708018,-79.427207,307:43
100,Bathurst St at Fort York Blvd,43.638947,-79.400771,307:69
101,Bathurst St at Burton Rd,43.691765,-79.421687,7:11
102,Bathurst St at Caribou Rd,43.71753,-79.429253,7:22
104,Bathurst St at Carscadden Dr,43.765547,-79.441098,307:17
105,Bathurst St at Cedarcroft Blvd South Side,43.783511,-79.445589,307:9
106,Bathurst St at Chabad Gate,43.799281,-79.447256,160:31
107,Bathurst St at Claxton Blvd South Side,43.686625,-79.419824,307:50
108,Bathurst St at Codsell Ave,43.758401,-79.43901,160:13|7:40
109,Bathurst St at Codsell Ave,43.758716,-79.439386,307:19
111,Bathurst St at College St,43.656632,-79.407861,307:62
112,Bathurst St at Covington Rd,43.721136,-79.430335,307:36|400:21
116,Bathurst St at Danby Ave,43.749183,-79.437058,307:23
117,Bathurst St at Davenport Rd,43.676508,-79.415591,7:6
118,Atkinson Ave at Clark Ave West,43.805029,-79.440924,160:50
119,Bathurst St at Dell Park Ave South Side,43.717295,-79.429418,307:38
122,Bathurst St at Dewlane Dr,43.78586,-79.445832,160:24|7:51
123,Bathurst St at Antibes Dr,43.781233,-79.445042,307:10
124,Bathurst St at Douglas Ave,43.720714,-79.429983,7:24
125,Bathurst St at Drewry Ave,43.780932,-79.444599,160:22|7:49
127,Bathurst St at Dundas St West - Toronto Western Hospital,43.652475,-79.406185,307:64
128,Bathurst St at Dupont St,43.67305,-79.41422,7:4
129,Bathurst St at Dupont St,43.673241,-79.414496,307:56
130,Bathurst St at Eglinton Ave West North Side,43.701447,-79.425469,33:1|7:14
131,Bathurst St at Eglinton Ave West,43.70111,-79.425693,307:46
132,Bathurst St at Elderwood Dr,43.695157,-79.423089,7:12
133,Bathurst St at Ellerslie Ave North Side,43.765906,-79.440833,160:15|7:42
134,Bathurst St at Elm Ridge Dr,43.705395,-79.426541,307:44
135,Bathurst St at Fairlawn Ave,43.724694,-79.430905,7:26
136,Bathurst St at Finch Ave West,43.773623,-79.44272,160:19|7:46
137,Bathurst St at Finch Ave West South Side,43.773391,-79.443056,307:13
138,Bathurst St at Fisherville Rd,43.790264,-79.445803,307:6
143,Bathurst St at Glencairn Ave,43.71225,-79.427979,7:19
144,Bathurst St at Glencairn Ave,43.712484,-79.428276,307:41
145,Bathurst St at Glengrove Ave,43.714109,-79.428447,7:20
146,Bathurst St at Glengrove Ave,43.714354,-79.428702,307:40
147,Bathurst St at Greenwin Village Rd,43.790692,-79.445237,160:26
149,Bathurst St at Harbord St,43.661614,-79.409887,307:60
153,Bathurst St at Bridgman Ave,43.674989,-79.414992,7:5
154,1138 Bathurst St,43.675365,-79.415346,307:55
155,Bathurst St at Horsham Ave,43.768449,-79.441504,160:16|7:43
156,Bathurst St at Blue Flag Gate,43.768648,-79.441865,307:16
157,Bathurst St at Invermay Ave,43.741617,-79.435168,307:27
158,Bathurst St at Joicey Blvd,43.733827,-79.433052,7:30
163,Bathurst St at Laurelcrest Ave,43.74451,-79.435903,307:25
164,Bathurst St at Lawrence Ave West South Side,43.718829,-79.429826,307:37
165,Bathurst St at Lawrence Ave West,43.719105,-79.42961,7:23
168,Bathurst St at Lonsdale Rd,43.68686,-79.419702,7:10
170,Bathurst St at Lyonsgate Dr,43.742895,-79.435483,307:26
171,Bathurst St at Lytton Blvd,43.71038,-79.427533,14:14|7:18
172,Bathurst St at Marquette Ave,43.734195,-79.433342,307:30|400:3
173,Bathurst St at Mascot Pl,43.770483,-79.44229,307:15
174,Bathurst St at Mcallister Rd North Side,43.753514,-79.437841,160:11|7:38
175,Bathurst St at Melrose Ave,43.727244,-79.431501,7:27
178,Bathurst St at Nassau St - Toronto Western Hospital,43.654353,-79.406946,307:63
179,Bathurst St at Neptune Dr,43.731615,-79.432722,307:31
180,Bathurst St at Nina St,43.679716,-79.416855,7:7
181,Bathurst St at Olive Ave,43.670382,-79.413366,307:57
182,Opposite 4981 Bathurst St,43.775844,-79.443659,307:12
183,6101 Bathurst St,43.787443,-79.446244,160:25|7:52
184,Bathurst St at Patricia Ave North Side,43.78418,-79.44541,160:23|7:50
185,Bathurst St at Prince Charles Dr South Side,43.724518,-79.431077,307:34|400:18
187,Bathurst St at Queen St West,43.647375,-79.404131,307:66
188,Bathurst St at Raeburn Ave,43.744162,-79.435564,160:7|7:34
189,Bathurst St at Ranee Ave,43.72707,-79.431662,307:33|400:17
190,Bathurst St at Reiner Rd,43.752651,-79.437863,307:21
192,Bathurst St at Ridge Hill Dr,43.703452,-79.426013,307:45
193,Bathurst St at Robinson St,43.649099,-79.40483,307:65
194,Bathurst St at Rockford Rd,43.785936,-79.446214,307:8
195,Bathurst St at Roselawn Ave,43.705064,-79.426195,7:16
196,Bathurst St at Saranac Blvd,43.723161,-79.430751,307:35|400:19
197,Bathurst St at Shelborne Ave,43.715842,-79.428833,7:21
198,Bathurst St at Shelborne Ave,43.716134,-79.429129,307:39
199,Bathurst St at Sheppard Ave West,43.755214,-79.43823,160:12|7:39
200,Bathurst St at Sheppard Ave West,43.755643,-79.438674,307:20
204,Bathurst St at St Clair Ave West,43.683275,-79.418455,307:52
205,Bathurst St at Stafford Rd,43.7703,-79.441951,160:17|7:44
206,Bathurst St at Steeles Ave West North Side,43.793044,-79.44571,160:28
209,Bathurst St at Strathearn Rd,43.692041,-79.422014,307:49
210,Bathurst St at Tichester Rd South Side,43.685088,-79.41918,307:51
211,Bathurst St at Tichester Rd,43.685297,-79.41907,7:9
213,Bathurst St at Ulster St,43.659869,-79.409188,307:61
214,Bathurst St at Vesta Dr,43.703148,-79.425728,33:2|7:15
215,Bathurst St at Viewmount Ave South Side,43.710114,-79.42769,307:42
216,Bathurst St at Warwick Ave,43.695352,-79.423363,307:48
219,Bathurst St at Wells St,43.670003,-79.413019,7:3
220,Bathurst St at Southbourne Ave,43.738382,-79.434132,160:5|7:32
221,Bathurst St at Wilson Ave,43.737188,-79.433814,7:31
222,Bathurst St at Wilson Ave South Side,43.736782,-79.43401,307:29|400:2
224,Bathurst St at Woburn Ave,43.722434,-79.430385,7:25
225,4600 Bathurst St,43.762602,-79.44037,307:18
226,Opposite 4600 Bathurst St,43.762333,-79.439959,160:14|7:41
227,Bathurst St at York Downs Dr,43.747065,-79.436285,160:8|7:35
228,Bathurst St at York Downs Dr,43.747362,-79.436588,307:24
229,Bathurst St at Yorkview Dr South Side,43.772311,-79.442749,307:14
230,Bathurst St at Yorkview Dr,43.772251,-79.442408,160:18|7:45
232,Bay St at Adelaide St West,43.649997,-79.380909,19:19
234,Bay St at Albert St,43.653029,-79.38278,19:17
235,Bay St at Bloor St West - Bay Station,43.670012,-79.389721,19:7
236,Bay St at Charles St West South Side,43.667981,-79.388876,19:8
239,Bay St at College St,43.660921,-79.386005,19:12
242,Bay St at Dundas St West,43.655825,-79.383879,19:15
245,Bay St at Elm St,43.657387,-79.384516,19:14
246,Bay St at Front St West South Side - Union Station,43.645484,-79.378997,121:17|320:68
249,Bay St at Gerrard St West,43.6586,-79.38502,19:13
251,Bay St at Grosvenor St,43.662647,-79.386557,19:11
253,Bay St at Hagerman St,43.654565,-79.383369,19:16
254,Bay St at Harbour St South Side - Jack Layton Ferry Terminal,43.641735,-79.377377,320:69
259,Bathurst St at Clark Ave West South Side,43.8029,-79.448396,160:52
260,Bay St at Queen St West,43.651901,-79.382172,19:18
262,Bay St at Queens Quay West North Side - Jack Layton Ferry Terminal,43.641686,-79.377069,114:18
265,Bay St at St Joseph St,43.665791,-79.387868,19:9
267,Bay St at Wellesley St West South Side,43.663965,-79.387105,19:10
277,Clark Ave West at York Hill Blvd,43.804157,-79.44469,160:51
279,Bayview Ave at The Bridle Path,43.738568,-79.382416,11:31
281,Bayview Ave at Burleigh Heights Dr South Side,43.779345,-79.390994,11:13
283,Bayview Ave at Byng Ave South Side,43.781659,-79.391546,11:12
287,Bayview Ave at Cummer Ave,43.792342,-79.393719,11:7
288,Bayview Ave at Empress Ave South Side,43.77398,-79.389824,11:16
291,Bayview Ave at Fifeshire Rd (South) South Side,43.75459,-79.385637,11:23
293,Bayview Ave at Finch Ave East,43.785158,-79.392374,11:10
295,Bayview Ave at Forest Heights Blvd,43.758165,-79.386317,11:22
299,2350 Bayview Ave - The Granite Club,43.734133,-79.381593,11:33|162:28
303,Bayview Ave at Hillcrest Ave,43.772666,-79.389534,11:17
304,Bayview Ave at Hollywood Ave,43.770859,-79.389136,11:18
305,Bayview Ave at Holmes Ave,43.783024,-79.391817,11:11
307,Bayview Ave at McKee Ave,43.778139,-79.390729,11:14
308,3292 Bayview Ave,43.789946,-79.393248,11:8
309,Bayview Ave at Newton Dr,43.799231,-79.395302,11:4
310,Bayview Ave at Opposite Garnier Park,43.800927,-79.395689,11:3
312,Bayview Ave at Post Rd,43.736547,-79.382082,11:32
314,Bayview Ave at Ruddington Dr South Side,43.787767,-79.3928,11:9
316,Bayview Ave at Ruth Ave,43.794226,-79.394137,11:6
318,Bayview Ave at Sheppard Ave East - Bayview Station,43.766792,-79.388244,11:20
322,Bayview Ave at Steeles Ave East South Side,43.802654,-79.39615,11:2
325,Bayview Ave at Valley Rd,43.744116,-79.383516,11:28
327,Bayview Ave at York Rd South Side,43.745809,-79.383845,11:27
329,Bayview Ave at York Mills Rd,43.748322,-79.384408,11:25
330,Bayview Ave at York Mills Rd South Side,43.747363,-79.384148,11:26
333,Bedford Rd at Bernard Ave South Side,43.673121,-79.399388,26:38
334,Bedford Rd at Davenport Rd,43.674533,-79.399915,19:3|26:37
336,Bedford Rd at Lowther Ave,43.670422,-79.398356,26:39
339,130 Bellamy Rd North,43.742221,-79.230355,9:22
342,Bellamy Rd North at Ben Alder Dr,43.760089,-79.236288,9:14
343,Bellamy Rd North at Benleigh Dr South Side,43.763167,-79.237531,9:13
344,Bellamy Rd North at Braeburn Blvd South Side,43.749205,-79.232357,9:19
346,Bellamy Rd North at Brimorton Dr,43.767658,-79.239344,9:11
348,Bellamy Rd North at Burnview Cres South Side,43.753661,-79.234194,9:17
349,Bellamy Rd North at Cedar Brae Blvd,43.751811,-79.233421,9:18
350,Bellamy Rd North at Eastpark Blvd South Side,43.755326,-79.234948,9:16
353,Bellamy Rd North at Eglinton Ave East - Eglinton GO Station,43.740531,-79.232292,9:23
354,Bellamy Rd North at Ellesmere Rd South Side,43.773883,-79.241768,9:8
358,Bellamy Rd North at Grace St South Side,43.743276,-79.229867,9:21
360,Bellamy Rd North at Jarwick Dr,43.766248,-79.23877,9:12
362,Bellamy Rd North at Lawrence Ave East,43.757906,-79.235467,9:15
363,Bellamy Rd North at Lynnbrook Dr,43.772762,-79.241395,9:9
364,Bellamy Rd North at Nelson St South Side,43.746267,-79.2311,9:20
367,Bellamy Rd North at Northleigh Dr,43.769705,-79.240156,9:10
374,Birchmount Rd at Ashtonbee Rd,43.733018,-79.279087,17:53
376,1120 Birchmount Rd,43.736931,-79.280673,17:51
377,1792 Birchmount Rd,43.765388,-79.291431,17:39
378,Birchmount Rd at Bay Mills Blvd,43.783702,-79.299549,17:32
380,Birchmount Rd at Bertrand Ave,43.735389,-79.280047,17:52
383,Birchmount Rd at Bonniewood Rd South Side,43.72737,-79.277056,17:55
387,Birchmount Rd at Canadian Rd,43.761471,-79.290724,17:41
389,Birchmount Rd at Carncastle Gate,43.777111,-79.296393,17:35
391,Birchmount Rd at Cass Ave,43.779043,-79.297223,17:34
392,Birchmount Rd at Chaldean St,43.793417,-79.303706,17:29
393,Birchmount Rd at Chelwood Rd,43.725505,-79.27619,17:56
396,Birchmount Rd at Comstock Rd,43.723821,-79.275484,17:57
398,Birchmount Rd at Crouse Rd,43.740861,-79.282287,17:49
401,Birchmount Rd at Denison St,43.832967,-79.318991,17:13
404,Birchmount Rd at Eglinton Ave East,43.730225,-79.278075,17:54
407,Birchmount Rd at Ellesmere Rd,43.763616,-79.291569,17:40
409,Birchmount Rd at Exford Dr,43.755068,-79.288083,17:43
410,Birchmount Rd at Ferguson Gate,43.829894,-79.317913,17:14
414,Birchmount Rd at Flora Dr,43.742233,-79.28283,17:48
415,Birchmount Rd at 14th Ave South Side,43.839298,-79.320309,17:10
416,Birchmount Rd at Foxridge Dr South Side,43.721543,-79.274496,17:58
418,Birchmount Rd at Fundy Bay Blvd,43.810951,-79.312305,17:22
421,1360 Birchmount Rd,43.749748,-79.285884,17:45
426,Birchmount Rd at Huntingwood Dr,43.790601,-79.302489,17:30
428,Birchmount Rd at L'Amoreaux Dr,43.800672,-79.307267,17:26
430,Birchmount Rd at Lawrence Ave East,43.747757,-79.285096,17:46
431,2450 Birchmount Rd - Stephen Leacock Collegiate,43.786076,-79.300578,17:31
434,Birchmount Rd at McNicoll Ave,43.808754,-79.311362,17:23
436,Birchmount Rd at Merryfield Dr,43.752111,-79.286846,17:44
437,Birchmount Rd at Modern Rd,43.744265,-79.283661,17:47
440,Birchmount Rd at Pinegrove Ave,43.698101,-79.264342,20:14
442,Birchmount Rd at Ranstone Gardens,43.738819,-79.281447,17:50
446,Birchmount Rd at Rolark Dr,43.767899,-79.292518,17:38
447,Birchmount Rd at Scarden Ave,43.774297,-79.295184,17:36
449,Birchmount Rd at Sheppard Ave East,43.781222,-79.298411,17:33
454,Birchmount Rd at Staley Ter,43.807046,-79.310572,17:24
456,Birchmount Rd at Steeles Ave East,43.821616,-79.317153,17:17
458,Birchmount Rd at Walkway to River Grove Dr,43.818466,-79.315655,17:19
459,Birchmount Rd at Timberbank Blvd,43.797215,-79.305331,17:28
464,Birchmount Rd at Highway 401 - Walkway North of Rolark,43.771792,-79.294137,17:37
466,Birchmount Rd at Walkway to Ambercroft Blvd,43.813872,-79.313644,17:21
469,Birchmount Rd at Wintermute Blvd,43.816283,-79.314742,17:20
473,Bloor St West at Dufferin St,43.659959,-79.43512,300:73
474,Bloor St West at Indian Rd,43.65548,-79.456725,300:78
475,Bloor St West at Runnymede Rd,43.651237,-79.476129,300:82
476,Bloor St East at Castle Frank Rd,43.674024,-79.368037,300:54
479,Bloor St East at Church St,43.671146,-79.382992,300:58
480,Bloor St East at Jarvis St,43.671706,-79.380383,300:57
483,Bloor St East at Parliament St,43.672194,-79.370653,300:55
485,Bloor St East at Sherbourne St,43.672463,-79.376704,300:56
486,Bloor St East at Yonge St,43.67034,-79.38664,300:59
487,Bloor St West at Aberfoyle Cres,43.64582,-79.51879,300:92
488,Bloor St West at Acorn Ave,43.640219,-79.541945,49:15
490,Bloor St West at Avenue Rd,43.66884,-79.393879,300:61
492,Bloor St West at Bathurst St,43.665214,-79.411078,300:65
499,Bloor St West at Brunswick Ave,43.665998,-79.40732,300:64
500,Bloor St West at Christie St,43.663559,-79.418706,300:68
501,Bloor St West at Clendenan Ave,43.652394,-79.470107,149:16
504,Bloor St West at Dovercourt Rd,43.661237,-79.429285,300:71
507,Bloor St West at Dundas St West,43.656441,-79.452231,168:24|300:77|402:9
509,Bloor St West at Eagle Rd East Side,43.645392,-79.519755,149:5
510,Bloor St West at The East Mall,43.636748,-79.556812,49:11
511,Bloor St West at The East Mall,43.637103,-79.556527,300:102
513,Bloor St West at Forest View Rd East Side,43.632851,-79.572971,49:7
514,Bloor St West at Clendenan Ave,43.652613,-79.469857,300:81
518,Bloor St West at Green Lanes East Side,43.644156,-79.525224,149:3
521,Bloor St West at Havelock St,43.66057,-79.432314,300:72
522,Bloor St West at High Park Ave,43.653658,-79.465101,300:80
523,Bloor St West at Old Mill Trail,43.649585,-79.495066,300:87
524,Bloor St West at Old Mill Trail,43.649571,-79.495659,149:10
526,Bloor St West at Islington Ave West Side,43.64451,-79.524265,300:94
527,Bloor St West at Islington Ave,43.64447,-79.523669,149:4
529,Bloor St West at Jane St,43.649446,-79.484271,300:84
530,Bloor St West at Keele St,43.654837,-79.45974,300:79
533,Bloor St West at The Kingsway,43.649909,-79.499461,149:9
534,Bloor St West at Koos Rd,43.634617,-79.56607,49:9
536,Bloor St West at Lansdowne Ave,43.658441,-79.442571,300:75|402:4
537,Bloor St West at Laurel Ave,43.638305,-79.551291,300:101
539,Bloor St West at Manning Ave,43.66416,-79.415911,300:67
546,Bloor St West at Markland Dr (East) East Side,43.633599,-79.570302,49:8
548,Bloor St West at Martin Grove Rd,43.639772,-79.54493,300:99
550,Bloor St West at Mill Rd East Side,43.632171,-79.574579,49:6
555,Bloor St West at South Kingsway,43.648025,-79.485977,149:12
562,Bloor St West at Ossington Ave,43.662066,-79.425497,300:70
564,Bloor St West at Palmerston Ave,43.66468,-79.413525,300:66
570,Bloor St West at Prince Edward Dr South,43.648508,-79.505687,149:8
577,Bloor St West at Riverview Gardens,43.648688,-79.485483,300:85
579,Bloor St West at Royal York Rd,43.647202,-79.511546,149:7
580,Bloor St West at Runnymede Rd,43.650991,-79.476466,149:15
581,Bloor St West at Shaver Ave South East Side,43.638962,-79.547422,49:13
582,Bloor St West at Shaver Ave North,43.63918,-79.547528,300:100
584,Bloor St West at Shaw St,43.662583,-79.423134,300:69
586,Bloor St West at Spadina Rd,43.666758,-79.403654,300:63
589,Bloor St West at Resurrection Rd,43.642903,-79.53091,149:2
590,3700 Bloor St West at Resurrection Rd,43.643174,-79.530639,300:95
592,Bloor St West at Symington Ave,43.657389,-79.447578,300:76|402:5
594,Bloor St West at Tremont Rd East Side,43.637886,-79.55211,49:12
595,Bloor St West at The West Mall,43.635412,-79.562688,49:10
596,Bloor St West at The West Mall,43.635815,-79.562124,300:103
597,Bloor St West at Wilmar Rd,43.639615,-79.544571,49:14
598,Bloor St West at Windermere Ave,43.65008,-79.480567,149:14
599,Bloor St West at Windermere Ave,43.650327,-79.48028,300:83
605,111 Bridgeland Ave,43.725687,-79.462619,47:44
609,227 Bridgeland Ave,43.724537,-79.467678,47:43
611,55 Bridgeland Ave,43.726343,-79.460272,47:45
614,Bridgeland Ave at Dufferin St,43.727037,-79.457991,47:46
615,Brimley Rd at Applefield Dr (North),43.768438,-79.260929,21:27
616,Brimley Rd at Applefield Dr (South),43.762263,-79.258528,21:29
617,Brimley Rd at Arnprior Rd South Side,43.751152,-79.254486,21:33
621,Brimley Rd at Britwell Ave,43.756125,-79.256188,21:31
622,Brimley Rd at Dallyn Cres,43.741205,-79.25039,21:38
623,Brimley Rd at Dorcot Ave South Side,43.758728,-79.257178,21:30
626,Brimley Rd at Eglinton Ave East,43.736862,-79.248419,21:40
629,Brimley Rd at Ellesmere Rd South Side,43.769639,-79.261388,21:26
631,Brimley Rd at Golden Gate Crt,43.772087,-79.262095,21:25
632,Brimley Rd at Gully Dr South Side,43.743455,-79.251289,21:37
634,Brimley Rd at Largo Lane South Side,43.747098,-79.252804,21:35
639,Brimley Rd at Lawrence Ave East,43.753732,-79.255604,21:32
641,Brimley Rd at Deerfield Rd,43.745579,-79.252159,21:36
643,Brimley Rd at Shediac Rd,43.748931,-79.253566,21:34
645,Brimley Rd at Strode Dr South Side,43.739428,-79.24961,21:39
647,Brimley Rd at Waterfield Dr,43.765319,-79.259711,21:28
649,876 Broadview Ave,43.679749,-79.358155,100:37|322:42|62:25|8:36|87:31
650,Broadview Ave at Bater Ave,43.686963,-79.355778,25:5
651,Broadview Ave at Chester Hill Rd,43.681397,-79.357724,100:36|322:41|62:24|8:35|87:30
652,Broadview Ave at Cosburn Ave North Side,43.688765,-79.355049,25:6|925:2
653,Broadview Ave at Cosburn Ave South Side,43.688182,-79.355485,100:33|322:38|8:32|87:27
655,Broadview Ave at Browning Ave,43.680882,-79.357665,25:3
656,Broadview Ave at Hillside Dr,43.686476,-79.356194,100:34|322:39|8:33|87:28
657,Broadview Ave at Mortimer Ave North Side,43.684347,-79.356745,25:4
659,Broadview Ave at Pottery Rd South Side,43.683554,-79.357145,100:35|322:40|62:23|8:34|87:29
660,Broadview Ave at Pretoria Ave,43.678521,-79.358476,100:38|322:43|62:26|8:37|87:32
665,Burnhamthorpe Rd at Appleby Rd,43.649317,-79.547202,50:11
671,Burnhamthorpe Rd at Burnhamthorpe Cres,43.649493,-79.530732,50:6
672,Burnhamthorpe Rd at Dundas St West North Side,43.648998,-79.529096,50:5
674,Burnhamthorpe Rd at The East Mall,43.646462,-79.559669,50:15
675,Burnhamthorpe Rd at Echo Valley Rd West Side,43.650363,-79.54266,50:10
677,Burnhamthorpe Rd at Burnhamthorpe Park Blvd West Side,43.650449,-79.533969,50:7
678,Burnhamthorpe Rd at Kipling Ave West Side,43.651053,-79.539705,50:9
681,Burnhamthorpe Rd at Martin Grove Rd West Side,43.648791,-79.54948,50:12
684,Burnhamthorpe Rd at Mulgrove Dr,43.644287,-79.568748,50:17
685,Burnhamthorpe Rd at Old Burnhamthorpe Rd (East),43.642747,-79.575602,50:19
689,Burnhamthorpe Rd at Silver Shadow Path,43.641831,-79.578843,50:20
690,Burnhamthorpe Rd at Renforth Dr West Side,43.643391,-79.572865,50:18
692,Burnhamthorpe Rd at Royalavon Cres West Side,43.650712,-79.536203,50:8
695,Burnhamthorpe Rd at Shaver Ave North West Side,43.648209,-79.551986,50:13
698,Burnhamthorpe Rd at The West Mall,43.644752,-79.567037,50:16
699,175 Caledonia Rd,43.680022,-79.456679,47:23
701,Caledonia Rd at Bentworth Ave,43.719375,-79.468437,47:40
703,Caledonia Rd at Bowie Ave North Side,43.695175,-79.462803,47:31
706,Caledonia Rd at Bridgeland Ave,43.72337,-79.469508,47:42
708,Caledonia Rd at Cartwright Ave,43.721252,-79.468903,47:41
710,Caledonia Rd at Castlefield Ave,43.698305,-79.463329,47:32
713,Caledonia Rd at Corby Ave,43.684568,-79.458579,47:26
715,Caledonia Rd at Eglinton Ave West,43.692778,-79.462026,47:30
717,Caledonia Rd at Glencairn Ave,43.704493,-79.464646,47:34
719,Caledonia Rd at Glengrove Ave,43.706301,-79.465166,47:35
721,Caledonia Rd at Innes Ave North Side,43.681242,-79.45715,47:24
725,Caledonia Rd at Keith Ave,43.690575,-79.461131,47:29
727,Caledonia Rd at Kitchener Ave,43.688899,-79.460424,47:28
731,Caledonia Rd at Leswyn Rd,43.71565,-79.467473,47:38
733,Caledonia Rd at Norman Ave,43.677577,-79.45562,47:22
735,Caledonia Rd at Orfus Rd,43.717578,-79.467995,47:39
737,Caledonia Rd at Playfair Ave,43.707998,-79.465644,47:36
740,Caledonia Rd at Raitherm Rd,43.701758,-79.464121,47:33
741,Caledonia Rd at Rogers Rd,43.68288,-79.457838,47:25
747,Caledonia Rd at Summit Ave,43.686657,-79.459454,47:27
761,Carpenter Rd at Steeles Ave West,43.79187,-79.447447,7:54
762,Cordova Ave at Central Park Roadway,43.647886,-79.52675,50:4
763,Cordova Ave at Dundas St West South Side,43.648526,-79.528396,40:29
767,Chaplin Cres at Lascelles Blvd,43.698153,-79.4006,14:3
770,Christie St at Dupont St,43.671498,-79.421389,126:5
773,Christie St at Follis Ave North Side,43.668608,-79.420307,126:3
775,Christie St at Melita Ave,43.673407,-79.422121,126:6
776,Christie Station,43.664124,-79.418567,126:1
778,Christie St at Yarmouth Rd North Side,43.670279,-79.420936,126:4
849,600 Commissioners St,43.655612,-79.32871,83:15
851,Lakeshore Garage,43.656152,-79.330193,114:1|325:1|83:16
852,Cosburn Ave at Coxwell Ave West Side,43.694085,-79.328558,322:29
853,545 Commissioners St East Side,43.655232,-79.329121,83:18
855,80 Cosburn Ave,43.689059,-79.350949,322:36|87:25
857,Cosburn Ave at Donlands Ave West Side,43.690981,-79.342035,322:33|87:22
860,Cosburn Ave at Logan Ave,43.68867,-79.352986,322:37|87:26
862,Cosburn Ave at Pape Ave,43.689514,-79.34864,322:35|87:24
864,Cosburn Ave at Todmorden Lane,43.690184,-79.345205,322:34|87:23
867,Crow Trail at Baldoon Rd,43.813546,-79.231021,339:3
868,Crow Trail at McGinty Pl,43.813581,-79.2284,339:2
871,Danforth Ave at Broadview Ave,43.676352,-79.35854,300:53
872,Danforth Ave at Byng Ave,43.692932,-79.280266,113:7|20:7
874,Danforth Ave at Caithness Ave,43.681063,-79.334596,300:45
877,Danforth Ave at Carlaw Ave,43.678557,-79.347166,300:50
881,Danforth Ave at Chester Ave,43.677652,-79.351832,300:51
884,Danforth Ave at Donlands Ave,43.680534,-79.337072,300:46
890,Danforth Ave at Glebemount Ave,43.684726,-79.317555,300:39
891,Danforth Ave at Gledhill Ave,43.686769,-79.308455,300:36
893,Danforth Ave at Greenwood Ave,43.681564,-79.332253,300:44
896,Danforth Ave at Jones Ave,43.679958,-79.339988,300:47
897,Danforth Ave at Leyton Ave,43.693398,-79.278057,113:8|20:8
899,Danforth Ave at Linnsmore Cres,43.682126,-79.329679,300:43|31:4
903,Danforth Ave at Monarch Park Ave,43.682686,-79.327079,300:42|31:3
905,Danforth Ave at Pape Ave,43.679046,-79.344736,300:49
908,Danforth Ave at Playter Blvd,43.67703,-79.354978,300:52
910,Danforth Ave at Sibley Ave,43.690091,-79.292815,113:4|20:4
911,Danforth Ave at Victoria Park Ave,43.691046,-79.288739,113:5|20:5
913,Danforth Ave at Westlake Ave,43.687592,-79.304867,300:35
915,Danforth Ave at Woodbine Ave,43.685785,-79.312657,300:37
916,Danforth Ave at Woodington Ave,43.684044,-79.320702,300:40
917,Danforth Ave at Woodmount Ave,43.685247,-79.315142,300:38
918,Danforth Ave at Woodycrest Ave,43.679623,-79.341698,300:48
919,3555 Danforth Ave,43.69403,-79.274904,20:9
920,Danforth Ave at Coxwell Ave,43.683471,-79.323473,300:41
921,Danforth Ave at Eastwood Ave East Side,43.695211,-79.268979,20:11
923,Danforth Ave at Warden Ave,43.694206,-79.273978,20:10
926,Davenport Rd at Avenue Rd,43.674582,-79.396689,19:4
932,Davenport Rd at Caledonia Park Rd East Side,43.671107,-79.450521,127:7
935,Davenport Rd at Christie St,43.675485,-79.423207,127:16
937,Davenport Rd at Dufferin St,43.672861,-79.441114,127:11
940,Davenport Rd at Dupont St,43.675511,-79.401938,19:1
942,Davenport Rd at Lansdowne Ave,43.671402,-79.448812,127:8
944,Davenport Rd at Lightbourn Ave,43.672278,-79.443935,127:10
948,Davenport Rd at New St,43.6747,-79.39311,19:5
950,Davenport Rd at Ossington Ave East Side,43.674664,-79.43042,127:14
952,Davenport Rd at Primrose Ave,43.671832,-79.446126,127:9
955,Davenport Rd at Shaw St,43.674677,-79.428504,127:15
961,Donlands Ave at Cosburn Ave,43.691019,-79.341513,56:6
964,Donlands Ave at Memorial Park Ave,43.689286,-79.340814,56:5
965,Donlands Ave at Mortimer Ave,43.687481,-79.340084,56:4
968,Donlands Ave at O'Connor Dr,43.694547,-79.342941,56:8
969,Donlands Ave at Plains Rd,43.692886,-79.342285,56:7
970,Donlands Ave at Sammon Ave,43.685734,-79.339384,56:3
978,4610 Dufferin St,43.77216,-79.467924,329:7
980,Dufferin St at Finch Ave West,43.768709,-79.466643,104:12
981,Dufferin St at Finch Ave West,43.769172,-79.467188,329:8
983,Dufferin St at Stanstead Dr,43.763075,-79.465455,104:10|105:5
987,Dundas St West at Sorauren Ave,43.651247,-79.445756,402:14
991,Dundas St West at Sterling Rd,43.650631,-79.443251,402:15
994,Dupont St at Bartlett Ave,43.668801,-79.436702,26:23
996,Dupont St at Bathurst St,43.673032,-79.414476,26:30
998,Dupont St at Bedford Rd,43.676176,-79.400835,19:2|26:36
1000,Dupont St at Christie St,43.671515,-79.421673,26:27
1002,Dupont St at Dovercourt Rd,43.669591,-79.432851,26:24
1004,Dupont St at Dufferin St,43.668358,-79.439136,26:22
1007,Dupont St at Edwin Ave East Side,43.664842,-79.455161,26:16
1008,Dupont St at Emerson Ave,43.667119,-79.444266,26:20
1011,Dupont St at Howland Ave,43.673573,-79.411904,26:31
1012,Dupont St at Huron St,43.675228,-79.404837,26:34
1014,Dupont St at Kendal Ave,43.674062,-79.409554,26:32
1015,Dupont St at Lansdowne Ave,43.666581,-79.446666,26:19
1017,Dupont St at Manning Ave East Side,43.672099,-79.418732,26:28
1018,1245 Dupont St,43.668187,-79.441213,26:21
1021,Dupont St at Ossington Ave,43.6701,-79.429377,26:25
1022,Dupont St at Palmerston Ave,43.672509,-79.416844,26:29
1023,Dupont St at Perth Ave,43.66531,-79.45294,26:17
1025,Dupont St at Shaw St,43.670463,-79.426696,26:26
1027,Dupont St at Spadina Rd East Side - Dupont Station,43.674795,-79.406768,26:33
1029,Dupont St at Symington Ave,43.665626,-79.451366,26:18
1032,Eglinton Ave East at Falmouth Ave,43.735453,-79.253308,116:4|300:4|334:36
1033,Eglinton Ave East at Gilder Dr,43.735775,-79.25309,21:41|386:30|86:32
1036,Eglinton Ave East at Midland Ave West Side,43.734493,-79.258911,20:37
1037,Eglinton Ave East at Midland Ave,43.73431,-79.258468,116:3|300:3|334:35
1038,North Service Rd at Eglinton Ave East,43.733029,-79.265477,20:38|21:43|386:32|57:42|86:34
1039,Eglinton Ave East at Torrance Rd,43.739362,-79.235449,116:7|334:39
1040,Eglinton Ave East at Torrance Rd West Side,43.739553,-79.235824,386:27|86:29|9:24
1043,Ellesmere Rd at Dolly Varden Blvd West Side,43.775797,-79.235291,38:29|395:28
1044,Ellesmere Rd at Dolly Varden Blvd,43.775626,-79.235048,133:11|95:49
1045,Ellesmere Rd at Dormington Dr West Side,43.777547,-79.227204,38:27|395:26|995:9
1046,Ellesmere Rd at Gander Dr East Side,43.777555,-79.226206,133:13|95:51
1048,Ellesmere Rd at Markham Rd,43.776245,-79.232002,133:12|95:50
1049,Ellesmere Rd at Markham Rd,43.776669,-79.231287,38:28|395:27|938:5|995:10
1051,Ellesmere Rd at Orton Park Rd,43.7796,-79.217311,133:15|95:53
1052,Ellesmere Rd at Scarborough Golf Club Rd,43.778371,-79.222373,133:14|95:52
1053,Elm St at University Ave East Side,43.65647,-79.387885,13:1
1056,Fisherville Rd at Bathurst St West Side,43.79026,-79.446185,7:53
1063,Manitoba Dr at Strachan Ave West Side,43.6363,-79.410411,307:73|363:35
1065,Flint Rd at Supertest Rd,43.775121,-79.481022,107:19
1069,Front St West at Bay St,43.64617,-79.37883,19:23
1088,Gerrard St West at Elizabeth St West Side,43.658144,-79.386788,13:2
1108,Gerrard St East at St Matthews Rd,43.664968,-79.354903,62:34|8:45
1111,Gerrard St East at University Ave,43.657731,-79.388929,13:3
1136,Greenwin Village Rd at Bathurst St,43.790855,-79.444642,307:5|7:59
1138,Greenwin Village Rd at Elise Ter (West),43.791763,-79.442132,307:3|7:57
1139,Greenwin Village Rd at Regatta Cres,43.791195,-79.442929,307:4|7:58
1144,Highview Ave at Anneke Rd,43.701075,-79.260018,20:17
1145,Highview Ave at Aylesworth Ave,43.700098,-79.264268,20:15
1147,Highview Ave at South Edgely Ave,43.700554,-79.262195,20:16
1158,Hullmar Dr at Peter Kaiser Gate,43.773259,-79.525938,35:7
1159,Hullmar Dr at Wheelwright Cres (East),43.773332,-79.524072,35:6
1162,Islington Ave at Anglesey Blvd,43.66386,-79.531702,337:25
1163,50 Cordova Ave,43.647746,-79.52432,50:3
1168,Jane St at Ardagh St,43.655651,-79.486965,26:3|335:4
1169,Jane St at Bloor St West North Side,43.649761,-79.484487,335:2
1170,Jane St at Colbeck St North Side,43.653357,-79.486024,26:2|335:3
1171,Jane St at Colbeck St,43.653347,-79.486211,35:59|55:20
1173,Jane St at Steeles Ave West South Side,43.774891,-79.521862,35:4|935:3
1182,Jones Ave at Boultbee Ave,43.672735,-79.337193,83:5
1183,Jones Ave at Danforth Ave South Side,43.679387,-79.340036,83:2
1186,Jones Ave at Dundas St East,43.666282,-79.334444,83:9
1188,Jones Ave at Gerrard St East,43.669347,-79.335743,83:7
1190,Jones Ave at Myrtle Ave South Side,43.671212,-79.336545,83:6
1193,Jones Ave at Queen St East,43.663137,-79.333046,83:10
1196,Jones Ave at Shudell Ave,43.675267,-79.33828,83:4
1197,Jones Ave at Sproat Ave South Side,43.667755,-79.335064,83:8
1199,Jones Ave at Strathcona Ave,43.67714,-79.339079,83:3
1200,Aukland Rd at Bloor St West South Side,43.640146,-79.540452,49:16
1203,Aukland Rd at Dundas St West,43.638579,-79.538367,49:17
1207,Kennedy Rd at Craiglee Dr,43.705502,-79.256904,20:20
1208,Kennedy Rd at Malta St North Side,43.704334,-79.256392,20:19
1209,Kennedy Rd at Mewburn Ave,43.707574,-79.257757,20:21
1210,Kennedy Rd at Park St,43.70938,-79.258513,20:22
1212,Kingston Rd at Neilson Ave West Side,43.7234,-79.23469,9:32
1219,Lawrence Ave East at Bayview Ave West Side,43.727834,-79.383212,162:29
1220,Lawrence Ave East at Bayview Ave,43.727666,-79.383231,124:10|352:68
1221,Lawrence Ave East at Cardinal Pl,43.725917,-79.398686,162:35
1222,Lawrence Ave East at Dinnick Cres East Side,43.726421,-79.39552,124:5|352:63
1226,Lawrence Ave East at Mt Pleasant Rd,43.726457,-79.396179,162:34
1227,Lawrence Ave East at Ronan Ave,43.72674,-79.394017,124:6|352:64
1228,Lawrence Ave East at Ronan Ave,43.726952,-79.39381,162:33
1229,Lawrence Ave East at Wanless Cres (East) West Side,43.727816,-79.389722,162:31
1230,Lawrence Ave East at Wanless Cres (East),43.727662,-79.389692,124:8|352:66
1231,Lawrence Ave East at Wanless Cres (West),43.727149,-79.392116,124:7|352:65
1232,Lawrence Ave East at Wanless Cres (West),43.727365,-79.391895,162:32
1233,Lawrence Ave East at Weybourne Cres East Side,43.725694,-79.399003,124:3|352:61
1234,Lawrence Ave at Yonge St - Lawrence Station,43.725251,-79.401896,162:36
1235,Lawrence Ave East at Yonge St East Side,43.725036,-79.401814,124:2|352:60
1238,Leslie St at Commissioners St,43.656679,-79.326626,83:14
1240,Leslie St at Lake Shore Blvd East,43.659362,-79.328632,83:13
1242,Lonsdale Rd at Avenue Rd East Side,43.690834,-79.402303,13:17
1249,Mill Rd at Burnhamthorpe Loop,43.640606,-79.582909,50:22
1254,Steeles Ave East Loop at Bayview Ave,43.803431,-79.397336,11:1
1265,Maniza Rd at Gilley Rd,43.735734,-79.464573,184:7
1266,Maniza Rd at Plewes Rd,43.734903,-79.464216,184:6
1267,Maniza Rd at Regent Rd,43.732257,-79.463087,184:4
1268,Maniza Rd at Spalding Rd,43.734032,-79.463844,184:5
1269,Markland Dr (West) at Bloor St West North Side,43.629667,-79.580248,49:1
1271,Markland Dr at Cherry Post Cres (North),43.633138,-79.582671,49:2
1272,Markland Dr at Mill Rd,43.636216,-79.580313,49:4
1274,Markland Dr at Silverthorne Bush Dr,43.634687,-79.581453,49:3
1280,Martin Ross Ave at Brisbane Rd (West),43.773686,-79.476268,107:17
1284,Martin Ross Ave at Flint Rd,43.77284,-79.480089,107:18
1285,McCowan Rd at Anson Ave,43.72664,-79.233247,9:30
1289,McCowan Rd at Commander Blvd North Side,43.796506,-79.261528,129:13|130:8
1290,McCowan Rd at Commander Blvd,43.796262,-79.261695,302:16
1292,McCowan Rd at Cree Ave,43.73082,-79.235,9:28
1293,McCowan Rd at Eglinton Ave East South Side,43.73832,-79.238182,9:25
1296,McCowan Rd at Finch Ave East,43.807878,-79.266239,129:17
1298,McCowan Rd at Horfield Ave,43.728523,-79.23404,9:29
1299,McCowan Rd at Huntingwood Dr,43.798816,-79.262774,302:15
1300,McCowan Rd at Invergordon Ave,43.787318,-79.257047,129:10|130:5|131:10|169:5
1301,McCowan Rd at Kenhatch Blvd,43.801324,-79.263574,129:15
1302,McCowan Rd at Kenhatch Blvd,43.801585,-79.263996,302:14
1304,McCowan Rd at Kingston Rd,43.72522,-79.232658,9:31
1306,McCowan Rd at Martindale Rd,43.732898,-79.235869,9:27
1307,McCowan Rd at Middlefield Rd,43.798532,-79.262287,129:14|130:9
1308,McCowan Rd at Milner Ave North Side,43.785961,-79.256495,129:9|130:4|131:9|169:4
1309,McCowan Rd at Milner Ave,43.78552,-79.256738,302:21
1310,McCowan Rd at Nugget Ave,43.791895,-79.259599,129:12|130:7|169:7
1311,2050 McCowan Rd,43.795063,-79.261173,302:17
1312,McCowan Rd at Pitfield Rd,43.787486,-79.257514,302:20
1315,McCowan Rd at Sandhurst Cir (South),43.804979,-79.265073,129:16
1316,McCowan Rd at Sandhurst Cir (South),43.805288,-79.265506,302:13
1317,McCowan Rd at Sheppard Ave East,43.789465,-79.258561,129:11|130:6|131:11|169:6
1318,McCowan Rd at Sheppard Ave East,43.789787,-79.259086,302:19
1323,Midland Ave at Aylesworth Ave North Side,43.714067,-79.249318,20:28
1324,Midland Ave at Brussels Rd,43.732556,-79.257169,20:36
1325,Midland Ave at Danforth Rd,43.724738,-79.253779,20:32
1326,Midland Ave at Hagley Rd,43.715707,-79.249999,20:29
1327,Midland Ave at Lorraine Ave,43.730662,-79.256386,20:35
1328,419 Midland Ave North Side,43.712292,-79.248584,20:27
1329,Midland Ave at St Clair Ave East,43.718432,-79.251018,20:30
1330,Midland Ave at St Clair Ave East North Side,43.719303,-79.251364,20:31
1331,Midland Ave at Verdun Ave,43.728826,-79.255599,20:34
1332,Midland Ave at Wolfe Ave,43.727054,-79.254847,20:33
1348,Mill Rd at Toledo Rd,43.634066,-79.57709,49:5
1355,601 Milner Ave,43.793966,-79.223153,132:14
1357,75 Milner Ave,43.784021,-79.25133,132:6
1358,Milner Ave at Executive Crt,43.786435,-79.242431,132:9
1360,Milner Ave at Markham Rd,43.789447,-79.237386,132:11
1361,Milner Ave at McCowan Rd East Side,43.785461,-79.255629,132:4
1366,115 Milner Ave,43.784655,-79.248371,132:7
1367,125 Milner Ave,43.785255,-79.246078,132:8
1368,Milner Ave at Progress Ave East Side,43.790343,-79.233051,132:12
1369,Opposite 44 Milner Ave,43.784944,-79.253717,132:5
1375,Neilson Rd at Crow Trail,43.812353,-79.225946,339:1
1378,Neilson Rd at Ellesmere Rd North Side,43.783012,-79.205028,133:18|334:70
1383,Neilson Rd at Keeler Blvd,43.790075,-79.211457,133:21|334:73
1384,Neilson Rd at Livonia Pl,43.78543,-79.206107,133:19|334:71
1385,Neilson Rd at Walkway to Blackwater Cres & Kessack Crt,43.799907,-79.218183,133:25|334:77
1387,Neilson Rd at Military Trail,43.787917,-79.208112,133:20|334:72
1389,Neilson Rd at Milner Ave North Side,43.795994,-79.216541,133:23|334:75
1393,Neilson Rd at Oakmeadow Blvd (North),43.791116,-79.213303,133:22|334:74
1399,Neilson Rd at Sewells Rd,43.806417,-79.218347,133:28|334:80
1400,Neilson Rd at Sheppard Ave East,43.797971,-79.217375,133:24|334:76
1403,Neilson Rd at Silverbell Grove,43.804102,-79.217064,133:27|334:79
1406,O'Connor Dr at Athlone Rd West Side,43.696118,-79.337377,8:24
1411,O'Connor Dr at Derwyn Rd,43.696688,-79.334719,8:23
1412,O'Connor Dr at Don Mills Rd West Side,43.695546,-79.340081,8:25
1413,O'Connor Dr at Donlands Ave West Side,43.694605,-79.343539,8:26
1416,O'Connor Dr at Milton Rd West Side,43.697218,-79.332385,8:22
1420,O'Connor Dr at Pape Ave,43.693341,-79.35014,8:29
1421,O'Connor Dr at Rivercourt Blvd,43.693704,-79.348146,8:28
1423,O'Connor Dr at Warland Ave,43.694117,-79.346018,8:27
1437,Oriole Pkwy at Gormley Ave,43.693639,-79.401714,13:18
1440,Oriole Pkwy at Kilbarry Rd,43.695393,-79.402281,13:19
1443,Park St at Atlee Ave,43.711332,-79.250949,20:25
1448,Park St at Claremore Ave,43.710071,-79.256611,20:23
1449,Park St at Natal Ave,43.710853,-79.253393,20:24
1450,Parkette Pl at Birchmount Rd,43.696348,-79.263987,20:12
1456,Queen's Park at Charles St West North Side - Museum Station,43.667603,-79.393512,13:7
1459,Queen's Park Cres East at St Joseph St North Side,43.66527,-79.391226,13:6
1464,Queen's Park Cres East at Wellesley St West,43.663459,-79.390475,13:5
1465,Queens Quay West at Bay St East Side,43.641548,-79.375474,320:70
1466,Queens Quay East at Freeland St,43.642619,-79.372942,114:16
1467,Queens Quay East at Yonge St,43.642166,-79.37421,114:17
1468,Rathburn Rd at Birchcroft Rd West Side,43.661951,-79.533659,48:15
1473,Rathburn Rd at The East Mall West Side,43.654977,-79.564857,48:24
1475,Rathburn Rd at Elmcrest Rd,43.647665,-79.586672,48:30
1477,590 Rathburn Rd,43.649652,-79.583489,48:29
1482,Rathburn Rd at Islington Ave West Side,43.662364,-79.531737,48:14
1487,Rathburn Rd at Kipling Ave,43.659984,-79.543032,48:18
1489,Rathburn Rd at Lloyd Manor Rd West Side,43.658947,-79.547446,48:20
1494,Mill Rd at Rathburn Rd Loop,43.645355,-79.590085,48:31
1495,Rathburn Rd at Pheasant Lane,43.66157,-79.535378,48:16
1496,Rathburn Rd at Ravenscrest Dr,43.658494,-79.549408,48:21
1498,Rathburn Rd at Renforth Dr West Side,43.651448,-79.579936,48:27
1501,580 Rathburn Rd - Seneca School,43.650674,-79.581797,48:28
1502,Rathburn Rd at The Wynd,43.660935,-79.538389,48:17
1505,Rathburn Rd at The West Mall,43.653248,-79.572307,48:25
1510,Royal York Rd at Ashley Park Rd (North) North Side,43.663913,-79.518628,48:8|73:8
1511,Royal York Rd at Dundas St West,43.657704,-79.515878,48:6|73:6
1513,Royal York Rd at King Georges Rd,43.649956,-79.512407,48:2|73:2
1515,Royal York Rd at Kingsgrove Blvd,43.653388,-79.513913,48:4|73:4
1518,Royal York Rd at Strath Humber Crt,43.661189,-79.517388,48:7|73:7
1520,Royal York Rd at Tremayne Ave,43.651534,-79.513105,48:3|73:3
1521,Royal York Rd at Usher Ave,43.655551,-79.514837,48:5|73:5
1535,Sheppard Ave East at Doris Ave,43.762274,-79.408102,385:84|98:24
1540,Sheppard Ave East at Leona Dr,43.762778,-79.404772,185:4
1543,Sheppard Ave East at Wilfred Ave,43.764976,-79.394809,185:6
1544,Sheppard Ave East at Willowdale Ave,43.763809,-79.399985,185:5
1545,Sheppard Ave East at Willowdale Ave,43.76413,-79.399503,385:82
1552,St Clair Ave East at Andrew Ave,43.720079,-79.244714,102:12
1553,St Clair Ave East at Andrew Ave,43.720304,-79.24451,9:36
1554,St Clair Ave East at Birchmount Rd West Side,43.714145,-79.271838,16:33|17:60|9:44
1555,St Clair Ave East at Brimley Rd West Side,43.720854,-79.241966,9:35
1556,St Clair Ave East at Cotton Ave,43.715853,-79.263794,102:6
1558,St Clair Ave East at Danforth Rd,43.717085,-79.259368,9:40
1559,St Clair Ave East at Elfreda Blvd,43.713659,-79.273123,102:3|117:3
1560,St Clair Ave East at Fermoy Rd,43.721461,-79.239054,9:34
1561,St Clair Ave East at Gidley Rd,43.719424,-79.247666,102:11
1562,St Clair Ave East at Kennedy Rd,43.716364,-79.261557,102:7
1563,St Clair Ave East at Kennedy Rd,43.716705,-79.261083,16:30|9:41
1565,St Clair Ave East at Kingston Rd West Side,43.721913,-79.237176,9:33
1566,St Clair Ave East at Linden Ave - Scarborough GO Station,43.717393,-79.256113,102:9
1568,St Clair Ave East at Marsh Rd,43.715953,-79.264399,16:31|9:42
1569,St Clair Ave East at Midland Ave,43.718543,-79.251592,102:10|902:4
1571,St Clair Ave East at North Woodrow Blvd,43.715452,-79.266449,16:32|9:43
1585,Steeles Ave West at Bathurst St East Side,43.792559,-79.444561,307:1|7:55
1587,Steeles Ave West at Bathurst St,43.792234,-79.446093,353:21
1590,Steeles Ave West at Keele St East Side,43.781584,-79.493751,353:8
1591,Steeles Ave West at Keele St,43.781743,-79.4942,60:26|960:11
1592,Steeles Ave West at Murray Ross Pkwy East Side,43.776344,-79.516416,108:37|335:54|84:56
1593,Steeles Ave West at Murray Ross Pkwy,43.776613,-79.516784,166:3|35:3|60:30|960:14
1594,Steeles Ave West at Founders Rd East Side - York University,43.779212,-79.503758,353:7
1595,Steeles Ave West at Founders Rd - York University,43.779428,-79.504234,60:27
1596,Steeles Ave West at Petrolia Rd,43.782395,-79.490224,353:9
1597,Steeles Ave West at Shale Gate,43.783056,-79.487457,353:10
1598,Steeles Ave West at Tandem Rd,43.782754,-79.489902,60:25|960:10
1601,Steeles Ave West at Northwest Gate East Side,43.777721,-79.510466,106:25|108:38|335:55|353:6
1602,Steeles Ave West at Northwest Gate,43.777918,-79.510766,166:2|35:2|60:29|935:2|960:13
1603,Steeles Ave West at Village Gate,43.793281,-79.441127,353:22
1612,Triton Rd at Borough Dr,43.773658,-79.261533,21:24|38:34|904:13|938:7
1613,Triton Rd at Borough Dr,43.773482,-79.261427,129:5|131:5|133:5|21:22|903:5|904:11|996:43
1614,University Ave at College St - Queen's Park Station,43.659717,-79.390178,13:4
1617,Village Gate at Steeles Ave West,43.792558,-79.440731,307:2|7:56
1621,689 Warden Ave,43.707412,-79.278973,135:21|68:8
1622,Warden Ave at Cataraqui Cres,43.702311,-79.276824,135:18|68:5
1623,Warden Ave at Danforth Rd,43.697766,-79.274961,135:16|68:3
1625,Warden Ave at Mack Ave,43.700133,-79.275932,135:17|68:4
1626,673 Warden Ave,43.705637,-79.278232,135:20|68:7
1632,The West Mall at Sherway Dr North Side,43.609781,-79.560638,123:19
1633,The West Mall at Sherway Dr - Trillium Health Centre (South Stop),43.609464,-79.560579,80:38
1638,The West Mall at The Queensway,43.611806,-79.562012,123:20
1642,West Mall Cres at Dundas St West South Side,43.626881,-79.562135,112:10
1644,West Mall Cres at The West Mall,43.627091,-79.559674,112:11
1645,William R Allen Rd at Overbrook Pl,43.760867,-79.464927,104:9|105:4
1647,William R Allen Rd at Sheppard Ave West South Side,43.749635,-79.463343,329:13
1654,Wilson Ave at Bathurst St West Side,43.737389,-79.434643,165:9|396:10|96:9
1656,Wilson Ave at Dufferin St West Side,43.732143,-79.459421,101:3|118:3|119:3|120:3|165:15|184:3|396:16|96:15
1657,Wilson Ave at Dufferin St,43.731854,-79.459521,996:26
1658,Wilson Ave at Faywood Blvd East Side,43.734763,-79.445833,160:2
1659,Wilson Ave at Faywood Blvd,43.734883,-79.446263,165:12|396:13|96:12
1660,Wilson Ave at King High Ave,43.735406,-79.442947,160:3
1661,Wilson Ave at King High Ave,43.735702,-79.442466,165:11|396:12|96:11
1666,Wilson Ave at Transit Rd West Side,43.733336,-79.453577,329:15|396:14
1668,Yonge St at Belsize Dr,43.700368,-79.39713,320:41|97:51
1669,Yonge St at Chaplin Cres,43.698394,-79.39676,320:42|97:52
1671,Yonge St at Front St West,43.647003,-79.377086,19:22
1673,Yonge St at Manor Rd West,43.702611,-79.3976,320:40|97:50
1675,Yorkdale Rd at Yorkdale Mall (North Entrance),43.728242,-79.453438,47:47
1677,Yorkdale Rd at GO Terminal - Yorkdale Station,43.72589,-79.448763,47:48
1680,Albion Rd at Beaumonde Heights Park West Side,43.738716,-79.573613,73:45
1681,Albion Rd at Benstrow Ave,43.739092,-79.575981,73:46
1683,Albion Rd at Kipling Ave,43.739768,-79.580072,73:47
1685,1530 Albion Rd - Albion Centre,43.740641,-79.585511,73:48
1688,Albion Rd at Todd Brook Dr,43.738366,-79.571394,73:44
1708,Bayview Ave at Millwood Rd,43.704335,-79.374731,11:46
1710,Bayview Ave at Arjay Cres,43.740168,-79.382719,11:30
1711,Bayview Ave at Bayview Ridge Cres,43.742341,-79.383159,11:29
1712,Bayview Ave at Blythwood Rd South Side,43.720431,-79.378945,11:40
1715,Bayview Ave at Broadway Ave,43.714039,-79.377754,11:42
1716,Bayview Ave at Kilgour Rd - CNIB,43.717092,-79.378325,11:41
1718,Bayview Ave at Dawlish Ave South Side,43.7243,-79.379746,11:36|124:12|352:70
1725,Bayview Ave at Wood Ave,43.727063,-79.382049,11:35|124:11|352:69
1727,Bayview Ave at Manor Rd East,43.707037,-79.375756,11:45
1729,Hospital Rd at Wellness Way East Side - Sunnybrook Main Entrance,43.72178,-79.376853,124:14|352:72
1731,Bayview Ave at Soudan Ave,43.708916,-79.376494,11:44
1738,Bingham Ave at Kingston Rd,43.680832,-79.285215,322:2
1739,Birchmount Rd at Danforth Ave,43.697222,-79.26419,117:11
1740,Birchmount Rd at Finch Ave East,43.799148,-79.306217,17:27
1750,The Bridle Path at Saintfield Ave,43.729257,-79.360483,162:18
1752,The Bridle Path at Suncrest Dr,43.726432,-79.360313,162:19
1758,Broadview Ave at Gerrard St East,43.665663,-79.352794,62:33|8:44
1760,Broadview Ave at Langley Ave-Hennick Bridgepoint Hospital,43.668079,-79.353319,62:31|8:42
1762,Broadview Ave at Millbrook Cres,43.672144,-79.355165,62:29|8:40
1763,Broadview Ave at Jack Layton Way,43.666481,-79.353132,62:32|8:43
1767,Broadview Ave at Withrow Ave,43.669859,-79.353435,62:30|8:41
1769,Broadview Ave at Wolfrey Ave,43.674457,-79.357342,62:28|8:39
1778,Cosburn Ave at Cedarvale Ave,43.696958,-79.315328,87:13
1779,Cosburn Ave at Gledhill Ave,43.69693,-79.313427,404:14
1780,Cosburn Ave at Gledhill Ave,43.697067,-79.313067,87:12
1781,Cosburn Ave at Westlake Cres East Side,43.697362,-79.310059,404:16
1782,Cosburn Ave at Westlake Cres West Side,43.697384,-79.310489,87:10
1783,Coxwell Ave at Casci Ave,43.677303,-79.320962,322:20
1785,Coxwell Ave at Danforth Ave,43.683205,-79.323439,322:23
1786,Coxwell Ave at Danforth Ave,43.683532,-79.32377,22:2|31:2
1787,Coxwell Ave at Dundas St East,43.668538,-79.317395,322:16
1788,Coxwell Ave at Dundas St East,43.668972,-79.317745,22:9
1789,Coxwell Ave at Earl Haig Ave,43.681321,-79.32284,22:3
1790,Coxwell Ave at Eastwood Rd,43.672707,-79.319104,322:18
1791,Coxwell Ave at Fairford Ave,43.675524,-79.320451,22:6
1792,Coxwell Ave at Hanson St South Side,43.679563,-79.32213,22:4
1793,Coxwell Ave at Hanson St,43.679672,-79.321983,322:21
1795,Coxwell Ave at Queen St East,43.666692,-79.316748,22:10
1796,Coxwell Ave at Robbins Ave,43.669777,-79.317896,322:17
1797,Coxwell Ave at Robbins Ave,43.669844,-79.318125,22:8
1800,Coxwell Ave at Gerrard St East,43.675096,-79.320091,322:19
1802,Cummer Ave at Bayview Ave,43.792124,-79.39381,42:11
1805,Cummer Ave at Conacher Dr,43.791392,-79.397163,42:10
1808,Cummer Ave at Craigmont Dr,43.797161,-79.379136,42:15
1810,Cummer Ave at Leslie St,43.801133,-79.370964,42:17
1812,Cummer Ave at Maxome Ave,43.790352,-79.401825,42:9
1814,Cummer Ave at Pineway Blvd East Side,43.798759,-79.375492,42:16
1817,Cummer Ave at Ruddington Dr,43.792957,-79.390829,42:12
1818,Cummer Ave at Silverview Dr,43.787742,-79.413773,42:5
1821,Cummer Ave at Snowcrest Ave (East),43.794692,-79.382673,42:14
1822,Cummer Ave at Snowcrest Ave (West),43.7936,-79.387913,42:13
1823,205 Cummer Ave,43.788879,-79.408567,42:7
1825,285 Cummer Ave - St John's Rehab Hospital,43.789637,-79.405129,42:8
1826,Cummer Ave at Willowdale Ave,43.788556,-79.410029,42:6
1828,Cummer Ave at Yonge St East Side,43.787115,-79.416628,42:4
1833,Danforth Ave at Leyton Ave West Side,43.693513,-79.278367,300:27
1836,Danforth Ave at Pharmacy Ave,43.692436,-79.283201,300:29
1837,Danforth Ave at Sibley Ave,43.690361,-79.292442,300:31
1839,Danforth Ave at Victoria Park Ave,43.691385,-79.28801,300:30
1841,347 Danforth Rd,43.703416,-79.270199,113:14
1842,3450 Danforth Ave,43.694178,-79.275031,300:26|68:1
1843,375 Danforth Rd,43.704862,-79.269264,113:15
1844,Danforth Rd at Birchmount Rd West Side,43.706662,-79.268473,300:19
1845,Danforth Rd at Birchmount Rd,43.706112,-79.268531,113:16
1848,Danforth Rd at Hubert Ave,43.713943,-79.261551,300:16
1849,295 Danforth Rd,43.701442,-79.271596,113:13
1852,Danforth Rd at Mack Ave,43.700102,-79.272633,113:12
1853,Danforth Rd at Mack Ave,43.700261,-79.272824,300:22
1854,Danforth Rd at Marsh Rd,43.71181,-79.26286,300:17
1856,Danforth Rd at Medford Ave,43.69913,-79.273592,300:23
1857,Danforth Rd at Medford Ave,43.698709,-79.273571,113:11
1863,Danforth Rd at Landry Ave,43.694796,-79.276241,113:9|68:2
1865,Davisville Ave at Acacia Rd,43.699932,-79.389138,11:53|28:11
1868,Davisville Ave at Bayview Ave West Side,43.702938,-79.374563,11:47|28:5
1870,Davisville Ave at Belle Ayre Blvd,43.701157,-79.383144,11:50|28:8
1872,Davisville Ave at Cleveland St,43.702242,-79.377901,11:48|28:6
1874,Davisville Ave at Forman Ave,43.701721,-79.380502,11:49|28:7
1876,Davisville Ave at Mt Pleasant Rd,43.700417,-79.38676,11:51|28:9
1879,84 Davisville Ave - Salvation Army,43.699124,-79.393026,11:54|28:12
1883,Davisville Ave at Yonge St,43.698505,-79.395939,11:55|28:13
1885,Dawes Rd at Beth St,43.704516,-79.296462,23:9|404:29
1889,Dawes Rd at Dentonia Park Ave,43.692236,-79.29716,23:16
1891,Dawes Rd at Donora Dr South Side,43.700206,-79.297083,23:11|404:31
1892,Dawes Rd at Ferris Rd South Side,43.705884,-79.295669,23:8|404:28
1894,Dawes Rd at Goodwood Park Crt,43.694804,-79.297225,404:21
1895,Dawes Rd at Goodwood Park Crt,43.695251,-79.297513,23:14
1897,Dawes Rd at Gower St,43.702372,-79.297052,23:10|404:30
1898,Dawes Rd at Park Vista,43.697875,-79.296925,404:24
1901,Dawes Rd at Secord Ave,43.693621,-79.297316,23:15
1906,Denton Ave at St Dunstan Dr,43.693583,-79.285951,67:37
1913,Don Mills Rd at Chipping Rd,43.744603,-79.345239,25:28|325:45
1915,Don Mills Rd at Cliffwood Rd (North),43.806959,-79.356619,25:53|325:68
1917,Don Mills Rd at Cliffwood Rd (South) North Side,43.805381,-79.354928,25:52|325:67
1919,Don Mills Rd at Deerford Rd,43.785281,-79.35057,10:5|25:45|325:60
1920,Don Mills Rd at The Donway East (North),43.740691,-79.344191,25:27|325:44
1922,Don Mills Rd at The Donway East (South) North Side,43.732636,-79.342026,25:24|325:41|354:18
1923,Don Mills Rd at The Donway West (South),43.732335,-79.342295,191:20
1928,Don Mills Rd at Esterbrooke Ave,43.779239,-79.348996,169:47
1929,Don Mills Rd at Fairview Mall Dr North Side,43.77953,-79.348701,10:3|25:43|325:58
1930,Don Mills Rd at Farmcote Rd North Side,43.74814,-79.346186,25:30|325:47
1933,Don Mills Rd at Freshmeadow Dr,43.808831,-79.358726,25:54|325:69
1934,Don Mills Rd at Gateway Blvd (North),43.7142,-79.336076,25:18|325:35
1936,Don Mills Rd at Gateway Blvd (South) North Side,43.710963,-79.33466,25:17|325:34|925:5
1938,Don Mills Rd at Godstone Rd,43.782682,-79.348922,10:4|25:44|325:59|925:15
1940,Don Mills Rd at Graydon Hall Dr,43.761635,-79.346994,25:35|325:52|925:12
1941,Don Mills Rd at Graydon Hall Pl,43.765093,-79.34674,25:36|325:53
1942,Don Mills Rd at Green Belt Dr North Side,43.727486,-79.340618,25:23|325:40|354:17|925:9
1944,Don Mills Rd at Kern Rd North Side,43.75035,-79.346828,25:31|325:48
1946,Don Mills Rd at Lawrence Ave East,43.736801,-79.34314,25:26|325:43|354:20|925:10
1948,Don Mills Rd at Legato Crt,43.746211,-79.345677,25:29|325:46
1949,Don Mills Rd at Leith Hill Rd North Side,43.777534,-79.347811,10:2|25:42|325:57
1952,Don Mills Rd at McNicoll Ave,43.799468,-79.353974,25:50|325:65|925:18
1955,Don Mills Rd at Moatfield Dr,43.758464,-79.346899,25:34|325:51
1956,Don Mills Rd at Mogul Dr,43.802406,-79.353199,25:51|325:66
1957,Opposite 1450 Don Mills Rd,43.752754,-79.346954,25:32|325:49
1959,Don Mills Rd at Parkway Forest Dr,43.769413,-79.346352,25:37|325:54|925:13
1961,Don Mills Rd at Clock Tower Rd,43.73428,-79.342483,25:25|325:42|354:19
1962,Don Mills Rd at Clock Tower Rd,43.734675,-79.342942,191:19
1966,Don Mills Rd at Premier Davis Blvd - Seneca Polytechnic,43.796264,-79.355054,25:49|325:64
1967,Don Mills Rd at Seneca Hill Dr,43.790161,-79.353964,25:47|325:62
1972,Don Mills Rd at St Dennis Dr,43.716388,-79.33703,25:19|325:36|925:6
1973,Don Mills Rd at St Dennis Dr,43.716659,-79.337512,72:3
1974,Don Mills Rd at Steeles Ave East,43.81104,-79.360513,25:55|325:70|925:19
1975,Don Mills Rd at Van Horne Ave,43.787246,-79.352783,25:46|325:61|925:16
1977,Don Mills Rd at Wynford Dr,43.722851,-79.339326,25:22|325:39|354:16
1978,Don Mills Rd at Wynford Dr,43.723169,-79.339832,403:12
1979,Don Mills Rd at York Mills Rd,43.755636,-79.346848,25:33|325:50|925:11
1981,16 The Donway East - Opposite Don Mills Collegiate,43.736053,-79.340644,162:2|403:7
1982,The Donway East at Don Mills Rd,43.732617,-79.341124,162:4
1983,The Donway East at Greenland Rd - Donway Place,43.734213,-79.340141,162:3|403:8
1984,The Donway East at Lawrence Ave East,43.73801,-79.341171,162:1
1990,The Donway West at Lawrence Ave East,43.736269,-79.346292,162:11|403:4
1991,The Donway West at Clock Tower Rd North Side,43.733429,-79.346994,162:10|403:3
1999,Driftwood Ave at Finch Ave West,43.757895,-79.513233,108:27
2007,Driftwood Ave at Wilmont Dr,43.759758,-79.515958,108:28
2009,Driftwood Ave at Yewtree Blvd,43.755335,-79.514038,108:26
2012,Driftwood Ave at Yorkwoods Gate,43.751397,-79.512586,108:25
2013,Dufferin St at Bloor St West - Dufferin Station,43.659958,-79.435506,29:33|329:47|929:13
2015,Dufferin St at Alma Ave,43.644682,-79.429661,29:40|329:54
2016,Dufferin St at Apex Rd South Side,43.716313,-79.455342,29:9|329:23
2017,Dufferin St at Ascot Ave,43.680238,-79.444056,29:25|329:39
2019,Dufferin St at Bentworth Ave,43.721949,-79.456556,29:6|329:20
2021,Dufferin St at Bowie Ave,43.698016,-79.451269,29:17|329:31
2023,Dufferin St at Briar Hill Ave,43.702508,-79.452277,29:15|329:29
2024,Dufferin St at Bridgeland Ave South Side,43.726345,-79.457682,29:4|329:18
2026,Dufferin St at Castlefield Ave,43.700952,-79.451951,29:16|329:30|929:7
2032,Dufferin Gate Loop,43.634401,-79.425872,29:46|329:60|929:22
2034,Dufferin St at College St,43.652658,-79.432662,29:37|329:51|929:16
2035,Dufferin St at Croatia St South Side,43.658039,-79.434742,29:34|329:48
2039,Dufferin St at Davenport Rd,43.673079,-79.441106,29:28|329:42|929:11
2041,Dufferin St at Dundas St West,43.649807,-79.431591,29:38|329:52|929:17
2044,Dufferin St at Dupont St South Side,43.668082,-79.43895,29:30|329:44|929:12
2046,Dufferin St at Eglinton Ave West,43.695717,-79.450479,29:18|329:32|929:8
2049,Dufferin St at Eversfield Rd South Side,43.687023,-79.446808,29:22|329:36
2054,Dufferin St at Glencairn Ave,43.707138,-79.453371,29:13|329:27|929:6
2056,Dufferin St at Glengrove Ave,43.709102,-79.453783,29:12|329:26
2058,Dufferin St at Gordon St,43.646893,-79.43048,29:39|329:53
2060,Dufferin St at Holmesdale Rd,43.688777,-79.44751,29:21|329:35
2061,Dufferin St at Hope St,43.682439,-79.444935,29:24|329:38
2064,Dufferin St at Jane Osler Blvd - Yorkdale Shopping Centre,43.724737,-79.457304,29:5|329:19|929:3
2067,Dufferin St at King St West,43.63907,-79.427505,29:43|329:57|929:19
2068,Dufferin St at Lappin Ave South Side,43.666082,-79.438076,29:31|329:45
2070,Dufferin St at Lawrence Ave West,43.714241,-79.454916,29:10|329:24|929:5
2072,Dufferin St at Liberty St,43.637414,-79.426893,29:44|329:58|929:20
2074,Dufferin St at Melbourne Ave,43.640638,-79.428104,29:42|329:56
2076,Dufferin St at Orfus Rd,43.720555,-79.456276,29:7|329:21|929:4
2078,Dufferin St at Playfair Ave,43.710983,-79.454179,29:11|329:25
2079,Dufferin St at Preston Rd South Side,43.690529,-79.448215,29:20|329:34
2083,Dufferin St at Rogers Rd,43.685674,-79.446257,29:23|329:37|929:9
2085,Dufferin St at Auburn Ave,43.675622,-79.442182,29:27|329:41
2086,Dufferin St at Rowan Ave,43.692263,-79.448915,29:19|329:33
2087,Dufferin St at Samor Rd South Side,43.71788,-79.455672,29:8|329:22
2089,Dufferin St at Shanly St,43.663251,-79.436864,29:32|329:46
2092,Dufferin St at Springhurst Ave,43.635014,-79.425934,29:45|329:59|929:21
2094,Dufferin St at St Clair Ave West,43.678395,-79.443316,29:26|329:40|929:10
2099,Dufferin St at Sylvan Ave,43.654788,-79.433476,29:36|329:50|929:15
2105,Dufferin St at Whitley Ave,43.729347,-79.458372,29:3|329:17
2107,Dufferin St at Wilson Ave South Side,43.731126,-79.458778,29:2|329:16|929:2
2137,Dundas St West at Acorn Ave,43.637002,-79.539088,123:35
2138,Dundas St West at Acorn Ave,43.637518,-79.539041,111:2|112:2
2139,Dundas St West at Aukland Rd,43.638232,-79.538008,123:36
2149,Dundas St West at East Mall Cres,43.630726,-79.549041,111:7|112:7|900:2|927:2
2167,Dundas St West at Howard Park Ave,43.652232,-79.448522,402:13
2170,Dundas St West at Lansdowne Ave,43.650111,-79.440135,402:16
2178,Dundas St West at Paulart Dr,43.631321,-79.546629,111:6|112:6
2180,Dundas St West at Subway Cres,43.635838,-79.5401,123:34
2181,Dundas St West at Roncesvalles Ave East Side,43.65348,-79.451258,402:12
2184,Dundas St West at Shaver Ave South,43.632336,-79.544636,111:5|112:5
2195,Dundas St West at Wilmar Rd,43.634088,-79.541828,123:33
2196,Dundas St West at Wilmar Rd,43.634928,-79.541384,111:4|112:4
2198,615 The East Mall,43.657031,-79.566765,111:18
2200,366 The East Mall,43.643546,-79.558701,300:112
2201,The East Mall at Bloor St West,43.636832,-79.556401,111:10
2203,The East Mall at Burnhamthorpe Rd South Side,43.645908,-79.56,300:111
2204,The East Mall at Burnhamthorpe Rd,43.646093,-79.559717,111:14
2205,The East Mall at Capri Rd North Side,43.652678,-79.563094,111:16
2209,The East Mall at Eglinton Ave West,43.671689,-79.571002,111:23
2211,The East Mall at Gordon Park Dr,43.634103,-79.556423,111:9
2212,The East Mall at Keane Ave North Side,43.649208,-79.560313,111:15
2216,The East Mall at Rathburn Rd,43.654763,-79.563999,111:17
2219,The East Mall at Talgarth Rd,43.662526,-79.570449,111:20
2220,The East Mall at Valhalla Inn Rd North Side,43.641893,-79.557673,111:12
2221,The East Mall at Valhalla Inn Rd,43.641605,-79.557891,300:113
2223,The East Mall at West Deane Park Dr,43.65915,-79.56893,111:19
2224,The East Mall at West Deane Valley Rd,43.666704,-79.572201,111:21
2227,The East Mall at Yarn Rd,43.632288,-79.553477,111:8
2228,East York Acres Parking Lot at Haldon Ave,43.697877,-79.311402,87:11
2234,Eglinton Ave East at Banff Rd,43.709914,-79.382341,334:8|34:7|354:7|51:7|54:7
2235,Eglinton Ave East at Banff Rd,43.710122,-79.38211,56:23
2238,Eglinton Ave East at Bayview Ave,43.710886,-79.377428,334:9|34:8|354:8|51:8|54:8
2239,Eglinton Ave East at Bayview Ave,43.711241,-79.376822,56:22
2241,Eglinton Ave East at Beachell St,43.742332,-79.222161,116:10|334:42
2242,Eglinton Ave East at Beachell St,43.742641,-79.221935,386:24|86:26
2244,Eglinton Ave East at Bellamy Rd North - Eglinton GO Station,43.740039,-79.23221,116:8|334:40|905:3
2246,Eglinton Ave East at Bermondsey Rd,43.725907,-79.3138,334:20
2249,Eglinton Ave East at Birchmount Rd,43.729763,-79.278138,334:28
2252,Eglinton Ave East at Brentcliffe Rd,43.714457,-79.359905,334:14|34:13|354:13|51:13|54:13
2256,Eglinton Ave East at Cedar Dr,43.743769,-79.215702,116:12|334:44
2257,Eglinton Ave East at Cedar Dr,43.744094,-79.215486,386:22|86:24
2258,Eglinton Ave East at Credit Union Dr,43.725943,-79.318405,334:19
2259,Eglinton Ave East at Danforth Rd,43.736844,-79.246727,116:5|334:37|905:2
2260,Eglinton Ave East at Danforth Rd,43.737338,-79.245756,386:29|86:31
2262,Eglinton Ave East at Don Mills Rd,43.720195,-79.339257,334:16
2266,Eglinton Ave East at Don Valley Pkwy West Side,43.722411,-79.332206,334:17
2268,Eglinton Ave East at Dunfield Ave,43.707504,-79.394948,56:27
2269,Eglinton Ave East at Falcon St West Side,43.709168,-79.386703,56:24
2270,Eglinton Ave East at Forman Ave,43.709106,-79.38633,334:7|34:6|354:6|51:6|54:6
2271,Eglinton Ave East at Lebovic Ave,43.726723,-79.291936,334:25
2275,Eglinton Ave East at Ionview Rd,43.731214,-79.271714,334:30
2277,Eglinton Ave East at Jonesville Cres East Side,43.724829,-79.306245,334:21
2282,Eglinton Ave East at Kingston Rd West Side,43.744079,-79.212339,386:21|86:23
2283,Eglinton Ave East at Kingston Rd,43.743796,-79.212135,116:13|334:45
2284,Eglinton Ave East at Laird Dr East Side,43.713677,-79.363762,334:13|34:12|354:12|51:12|54:12
2285,Eglinton Ave East at Laird Dr West Side,43.713582,-79.365203,56:18
2288,Eglinton Ave East at Markham Rd West Side,43.743168,-79.219635,386:23|86:25
2290,Eglinton Ave East at Mason Rd,43.741584,-79.225483,116:9|334:41
2292,Eglinton Ave East at McCowan Rd,43.738651,-79.238637,116:6|334:38
2293,Eglinton Ave East at McCowan Rd,43.73901,-79.238255,386:28|86:30
2295,Eglinton Ave East at Mt Pleasant Rd,43.708536,-79.389991,56:25
2304,Eglinton Ave East at Redpath Ave,43.707755,-79.392936,103:5|334:5|34:4|354:4|51:4|54:4|74:5
2305,Eglinton Ave East at Redpath Ave,43.707987,-79.392646,56:26
2306,Eglinton Ave East at Rosemount Dr,43.730673,-79.273945,334:29
2308,Eglinton Ave East at Rumsey Rd,43.712456,-79.369755,334:11|34:10|354:10|51:10|54:10
2309,Eglinton Ave East at Rumsey Rd,43.712675,-79.369465,56:20
2310,Eglinton Ave East at Sinnott Rd,43.72919,-79.280808,334:27
2312,Eglinton Ave East at Sutherland Dr,43.712965,-79.367323,334:12|34:11|354:11|51:11|54:11
2313,Eglinton Ave East at Sutherland Dr,43.713201,-79.36698,56:19
2319,Eglinton Ave East at Warden Ave,43.727633,-79.287859,334:26
2321,Eglinton Ave East at Wynford Dr,43.72404,-79.32621,334:18
2324,Eglinton Ave West at Avenue Rd West Side,43.704544,-79.409134,32:6
2326,Eglinton Ave West at Bathurst St,43.700837,-79.42578,332:44
2327,Eglinton Ave West at Bathurst St,43.701254,-79.424599,32:13
2328,Eglinton Ave West at Bemersyde Dr,43.678401,-79.545008,332:16|405:5
2330,Eglinton Ave West at Municipal Dr - York Civic Centre,43.689752,-79.477026,32:28
2331,Eglinton Ave West at Black Creek Dr,43.688149,-79.483113,161:3|164:3|168:3|332:27
2332,Eglinton Ave West at Blackthorn Ave,43.691842,-79.465459,332:33
2334,Eglinton Ave West at Caledonia Rd,43.692905,-79.462355,332:34
2335,Eglinton Ave West at Caledonia Rd,43.693177,-79.46177,32:24
2336,Eglinton Ave West at Castle Knock Rd,43.704064,-79.4114,32:7
2337,Eglinton Ave West at Ronald Ave,43.694247,-79.456973,32:23
2340,Eglinton Ave West at Dufferin St,43.69558,-79.450496,332:37
2341,Eglinton Ave West at Dufferin St,43.695788,-79.450072,32:21
2342,Eglinton Ave West at Duplex Ave,43.706175,-79.400656,13:26|332:53|61:23
2343,Eglinton Ave West at The East Mall,43.671654,-79.571438,332:12
2344,Eglinton Ave West at The East Mall,43.672032,-79.571143,32:45
2346,Eglinton Ave West at Elmsthorpe Ave,43.703986,-79.411032,332:49
2349,Eglinton Ave West at Ennerdale Rd,43.694869,-79.453583,332:36
2350,Eglinton Ave West at Ennerdale Rd,43.695064,-79.453323,32:22
2351,Eglinton Ave West at Gardiner Rd,43.702096,-79.419973,332:46
2355,Eglinton Ave West at Glen Cedar Rd,43.699728,-79.431124,332:43
2357,Eglinton Ave West at Glenholme Ave,43.696671,-79.445418,332:39
2358,Eglinton Ave West at Glenholme Ave,43.696854,-79.445081,32:19
2359,Eglinton Ave West at Heddington Ave,43.703573,-79.413714,32:8
2360,Eglinton Ave West at Henning Ave,43.706201,-79.401309,32:3
2362,Eglinton Ave West at Islington Ave,43.679694,-79.539177,332:17
2363,Eglinton Ave West at Islington Ave,43.679988,-79.538778,32:40
2366,Eglinton Ave West at Jane St East Side,43.68452,-79.498076,332:24
2368,Eglinton Ave West at Keele St East Side,43.690316,-79.473978,332:30
2369,Eglinton Ave West at Keele St/Trethewey Dr,43.689983,-79.475292,332:29
2370,Eglinton Ave West at Kipling Ave,43.677014,-79.551181,332:15|405:4
2371,Eglinton Ave West at Kipling Ave,43.677368,-79.550642,32:42
2374,Eglinton Ave West at Lascelles Blvd East Side,43.705641,-79.403203,13:25|332:52|61:22
2375,Eglinton Ave West at Lascelles Blvd,43.705725,-79.403558,32:4
2377,Eglinton Ave West at Lloyd Manor Rd,43.675433,-79.558022,332:14
2378,Eglinton Ave West at Jimmy Wisdom Way,43.696414,-79.447136,32:20
2379,Eglinton Ave West at Marlee Ave,43.697932,-79.439508,332:41
2380,Eglinton Ave West at Marlee Ave,43.698127,-79.439204,32:17|363:2|63:2|90:2
2381,Eglinton Ave West at Martin Grove Rd,43.674662,-79.562929,32:44
2382,Eglinton Ave West at Martin Grove Rd East Side,43.67442,-79.562591,332:13
2387,Eglinton Ave West at Northcliffe Blvd,43.696164,-79.447778,332:38
2388,Eglinton Ave West at Oakwood Ave,43.697197,-79.442946,332:40
2389,Eglinton Ave West at Oakwood Ave,43.697418,-79.442561,32:18
2390,Eglinton Ave West at Old Forest Hill Rd East Side,43.701517,-79.422636,332:45
2391,Eglinton Ave West at Old Forest Hill Rd,43.701626,-79.42291,32:12
2392,Eglinton Ave West at Old Park Rd,43.699989,-79.430703,32:14
2394,Eglinton Ave West at Oriole Pkwy East Side,43.705148,-79.405541,13:24|332:51|61:21
2395,Eglinton Ave West at Oriole Pkwy,43.705239,-79.40593,32:5
2399,Eglinton Ave West at Renforth Dr East Side,43.666543,-79.587065,332:10
2402,Eglinton Ave West at Royal York Rd,43.682131,-79.526845,332:19
2403,Eglinton Ave West at Royal York Rd,43.68247,-79.526336,32:38
2404,Eglinton Ave West at Eden Valley Dr,43.680945,-79.533052,332:18
2406,Eglinton Ave West at Scarlett Rd,43.683789,-79.511557,332:22|405:35
2407,Eglinton Ave West at Scarlett Rd,43.6841,-79.511249,32:36
2409,Eglinton Ave West at Richardson Ave,43.691058,-79.471319,32:26
2410,Eglinton Ave West at Spadina Rd,43.702476,-79.418838,32:10
2414,Eglinton Ave West at Trethewey Dr/Keele St,43.690375,-79.474368,32:27
2415,Eglinton Ave West at Vesta Dr,43.702097,-79.420708,32:11
2416,Eglinton Ave West at Walkway to Rangoon Rd,43.670474,-79.577739,332:11
2417,Eglinton Ave West at Opposite Walkway to Rangoon Rd,43.670682,-79.577791,32:46
2419,Eglinton Ave West at Weston Rd,43.687153,-79.489369,171:18|32:31
2421,Eglinton Ave West at Widdicombe Hill Blvd West Side,43.675664,-79.558038,32:43
2423,Emmett Ave at Verona Ave,43.688587,-79.503988,405:38
2424,85 Emmett Ave,43.687264,-79.506296,405:37
2426,120 Emmett Ave at Roadway to West Park Healthcare Centre,43.686434,-79.508669,405:36
2429,620 Evans Ave,43.610447,-79.550449,123:11|15:32|315:32
2430,Evans Ave at Arnold St West Side,43.616633,-79.520893,15:22|315:22
2434,Evans Ave at Brown's Line,43.61044,-79.549451,315:38
2435,Evans Ave at Brown's Line,43.610792,-79.549007,123:10|15:31|315:31
2437,Evans Ave at The East Mall,43.612047,-79.543583,15:29|315:29
2438,Evans Ave at Eastwick Rd West Side,43.617783,-79.51559,15:20|315:20
2440,Evans Ave at Gair Dr,43.609809,-79.552434,315:37
2441,Evans Ave at Gair Dr,43.610092,-79.551991,123:12|15:33|315:33
2445,Evans Ave at Horner Ave,43.617136,-79.518641,15:21|315:21
2446,Evans Ave at Islington Ave West Side,43.618229,-79.51288,15:19|315:19
2449,Evans Ave at Kipling Ave,43.616042,-79.524347,15:23|315:23
2451,Evans Ave at North Carson St,43.613104,-79.538677,15:27|315:27
2452,Evans Ave at Sheldon Ave West Side,43.61153,-79.545796,15:30|315:30
2454,Evans Ave at Sherway Gate West Side,43.609022,-79.556933,123:13|123:17|15:34|315:34
2456,Evans Ave at Treeview Dr,43.61365,-79.536222,15:26|315:26
2458,400 Evans Ave,43.615379,-79.528493,15:24|315:24
2461,Faywood Blvd at Joel Swirsky Blvd South Side,43.745325,-79.449224,104:23
2462,Faywood Blvd at Ansford Ave,43.735933,-79.446771,104:28
2464,Faywood Blvd at Bainbridge Ave,43.74825,-79.449868,104:22
2466,Faywood Blvd at Clanton Park Rd,43.743861,-79.448893,104:24
2467,Faywood Blvd at Dresden Rd,43.741404,-79.448055,104:25
2468,Faywood Blvd at Faith Ave,43.739215,-79.447563,104:26
2470,Faywood Blvd at Goodwill Ave,43.737002,-79.447053,104:27
2473,Faywood Blvd at Reiner Rd,43.749763,-79.450397,104:21
2483,Finch Ave East at Alexmuir Blvd,43.804819,-79.282003,339:22|39:21
2484,Finch Ave East at Baldoon Rd,43.815123,-79.232554,134:47
2486,Finch Ave East at Baylawn Dr,43.803284,-79.28868,339:24|39:23
2491,Finch Ave East at Birchmount Rd,43.799172,-79.305756,339:29|39:28|939:25
2492,Finch Ave East at Brahms Ave,43.792108,-79.357897,339:42|39:41
2495,Finch Ave East at Bridletowne Circle (East),43.797673,-79.312116,339:31|39:30
2496,Finch Ave East at Bridletowne Circle (West),43.796055,-79.319098,339:33|39:32
2498,Finch Ave East at Brimley Rd,43.80588,-79.277127,339:21|39:20|939:22
2503,Finch Ave East at Cherokee Blvd,43.793549,-79.336707,339:38|39:37
2508,Finch Ave East at Dudley Ave,43.781174,-79.409624,339:57|39:56
2511,Finch Ave East at Gaspe Rd,43.785871,-79.388957,339:50|39:49
2515,Finch Ave East at Kennedy Rd,43.801487,-79.29616,339:26|39:25|939:24
2517,Finch Ave East at Kenneth Ave,43.780577,-79.412214,339:58|39:57
2519,Finch Ave East at Leslie St - Old Cummer GO Station,43.790162,-79.369075,339:45|39:44|939:31
2521,Finch Ave East at Liszt Gate,43.790982,-79.362961,339:43|39:42
2523,Finch Ave East at Longmore St,43.782313,-79.404351,339:55|39:54
2526,Finch Ave East at Markham Rd,43.813199,-79.242764,134:34|339:13|39:12|939:16
2528,Finch Ave East at Maxome Ave,43.783459,-79.399176,339:53|39:52
2529,Finch Ave East at McCowan Rd,43.808227,-79.26627,339:18|39:17
2531,Finch Ave East at Walkway to Huntingdale Blvd,43.795052,-79.323292,339:34|39:33
2533,Finch Ave East at Middlefield Rd,43.810081,-79.257463,339:16|39:15|939:19
2535,Finch Ave East at Midland Ave,43.803931,-79.286077,339:23|39:22|939:23
2536,Finch Ave East at Page Ave West Side,43.786782,-79.384733,339:48|39:47
2539,Finch Ave East at Pharmacy Ave,43.794498,-79.325792,339:35|39:34|939:27
2540,Finch Ave East at Pineway Blvd,43.789319,-79.373112,339:46|39:45
2542,636 Finch Ave East (Plaza),43.787631,-79.380817,339:47|39:46
2544,Finch Ave East at Ravel Rd,43.790454,-79.365186,339:44|39:43
2545,Finch Ave East at Sandhurst Cir (East),43.809001,-79.262558,339:17|39:16|939:20
2548,Finch Ave East at Sandhurst Cir (West),43.807357,-79.270215,339:19|39:18
2549,Finch Ave East at Au Large Blvd - Seneca Polytechnic,43.793985,-79.349573,339:39|39:38|939:29
2552,Finch Ave East at Skymark Dr,43.793347,-79.352074,339:40|39:39
2553,Opposite 3501 Finch Ave East - St Aidan,43.798192,-79.309772,339:30|39:29
2560,Finch Ave East at Tiffield Rd,43.811034,-79.252626,339:15|39:14|939:18
2561,Opposite 5600 Finch Ave East,43.813554,-79.239965,134:45
2562,5600 Finch Ave East,43.813699,-79.240113,134:33|339:12|39:11|939:15
2563,Finch Ave East at Tollerton Ave,43.786413,-79.386577,339:49|39:48
2566,Finch Ave East at Victoria Park Ave,43.793308,-79.331145,339:37|39:36|939:28
2568,Finch Ave East at Opposite Walkway East of Birchmount Rd,43.799792,-79.303031,339:28|39:27
2570,Finch Ave East at Warden Ave,43.79697,-79.315476,339:32|39:31|939:26
2571,Finch Ave East at Wayside Ave,43.80065,-79.299471,339:27|39:26
2573,Finch Ave East at Wilfred Ave,43.782881,-79.401773,339:54|39:53
2575,Finch Ave East at Willowdale Ave,43.781737,-79.406965,339:56|39:55|939:33
2576,Finch Ave East at Winlock Park,43.784179,-79.395886,339:52|39:51
2578,Finch Ave West at Albion Rd,43.740914,-79.589123,336:21
2580,Finch Ave West at Alexdon Rd East Side,43.764657,-79.485147,336:42|36:3
2583,Finch Ave West at Ardwick Blvd (East),43.748626,-79.55775,336:26
2584,Finch Ave West at Ardwick Blvd (West),43.747602,-79.562474,336:25
2589,Finch Ave West at Champagne Dr,43.767646,-79.471686,336:46|36:7
2590,Finch Ave West at Chesswood Dr,43.766456,-79.477022,336:44|36:5
2593,Finch Ave West at Driftwood Ave,43.757924,-79.513523,336:35
2594,Finch Ave West at Driftwood Ave,43.758188,-79.513256,806:5
2596,Finch Ave West at Duncanwoods Dr,43.748959,-79.557477,806:11
2597,Finch Ave West at Elana Dr,43.756605,-79.520829,336:33|99:6
2600,Finch Ave West at Halesia Dr,43.733636,-79.606898,927:9|96:65
2606,Finch Ave West at Jane St East Side,43.757192,-79.516982,336:34
2608,Finch Ave West at Jayzel Dr,43.75079,-79.548836,166:31
2609,Finch Ave West at Jayzel Dr,43.750455,-79.549378,336:28
2610,Finch Ave West at John Garland Blvd,43.735889,-79.595065,927:12
2612,Finch Ave West at Keele St,43.763298,-79.49133,336:40|36:1
2616,Finch Ave West at Martin Grove Rd,43.736624,-79.591871,336:20
2617,Finch Ave West at Martin Grove Rd,43.736947,-79.591363,806:17
2620,Finch Ave West at Milvan Dr,43.750105,-79.552105,166:32|806:10
2621,Finch Ave West at Norfinch Dr - Humber Reactivation Care,43.756133,-79.524087,806:7
2622,Finch Ave West at Oakdale Rd - Humber Reactivation Care,43.755759,-79.524467,336:32|99:5
2624,Finch Ave West at Pearldale Ave,43.747924,-79.562184,806:12
2625,Finch Ave West at Romfield Lane,43.762438,-79.493647,336:39
2627,Finch Ave West at Rumike Rd,43.749782,-79.552422,336:27
2628,Finch Ave West at Sentinel Rd,43.760891,-79.500169,336:38
2629,Finch Ave West at Sentinel Rd,43.761191,-79.499797,806:3
2632,1685 Finch Ave West - St Wilfred Cathoiic School,43.760174,-79.503471,336:37
2636,Finch Ave West at Tobermory Dr,43.759158,-79.507973,336:36
2637,Finch Ave West at Tobermory Dr,43.759379,-79.507788,806:4
2640,Finch Ave West at Westmore Dr,43.734502,-79.601178,927:11
2642,Finch Ave West at Weston Rd East Side,43.752042,-79.541706,336:30
2643,Finch Ave West at Weston Rd,43.752276,-79.542034,119:33
2646,Freshmeadow Dr at Don Mills Rd,43.809241,-79.358694,25:58|325:73|925:20
2651,Glenorchy Rd at Saintfield Ave North Side,43.728709,-79.364892,162:22
2653,Glenorchy Rd at Suncrest Dr North Side,43.725801,-79.363868,162:20
2663,Grandravine Dr at Driftwood Ave,43.749177,-79.510228,108:24
2668,Grandravine Dr at Keele St West Side,43.751972,-79.488763,108:12
2672,Grandravine Dr at Sentinel Rd,43.751779,-79.495535,108:14
2674,Guildwood Pkwy at Chancery Lane,43.747927,-79.197076,116:19|334:51
2676,Guildwood Pkwy at Schubert Dr,43.750274,-79.186319,116:22|334:54
2678,Guildwood Pkwy at Guild Park and Gardens East Side,43.748713,-79.193517,116:20|334:52
2680,Guildwood Pkwy at Kingston Rd South Side,43.749242,-79.205455,116:15|334:47|406:19
2681,Guildwood Pkwy at Livingston Rd,43.74735,-79.199399,116:18|334:50
2685,Guildwood Pkwy at Prince Philip Blvd East Side,43.746141,-79.20265,116:16|334:48|406:20
2687,Guildwood Pkwy at Rowatson Rd East Side,43.747041,-79.200909,116:17|334:49
2689,Guildwood Pkwy at Scarcliff Gardens,43.751101,-79.183093,116:23|334:55
2711,Islington Ave at Barkwin Dr,43.738105,-79.565505,337:52|937:19
2713,Islington Ave at Ambleside Ave,43.629214,-79.51696,110:26|337:10
2714,Islington Ave at Athol Ave,43.626717,-79.51594,110:25|337:9
2716,Islington Ave at Beaumonde Heights Dr North Side,43.742858,-79.567695,337:54|937:21
2718,Islington Ave at Bering Ave North Side,43.639611,-79.521176,110:30|337:14
2723,Islington Ave at Kingsmoor Gate North Side,43.741105,-79.56691,337:53|937:20
2726,Islington Ave at Norseman St,43.634118,-79.51889,110:28|337:12
2728,Islington Ave at The Queensway North Side,43.624047,-79.514742,110:24|337:8
2730,Islington Ave at Saybrook Ave,43.636325,-79.519856,110:29|337:13
2733,Islington Ave at Van Dusen Blvd,43.641412,-79.521938,110:31|337:15
2735,Jane St at Goldwin Ave South Side,43.689014,-79.500424,35:45
2736,Jane St at Harding Ave,43.699462,-79.50268,335:20
2737,Jane St at Harding Ave,43.699747,-79.503069,35:42
2739,4359 Jane St,43.764049,-79.519111,335:48
2740,Jane St at Wright Ave,43.701092,-79.503411,35:41
2746,519 Kennedy Rd,43.719561,-79.262395,113:21
2748,Kennedy Rd at Corvette Ave,43.725201,-79.264834,113:23
2750,Kennedy Rd at Danforth Rd North Side,43.71552,-79.260971,113:19
2752,Kennedy Rd at Eglinton Ave East,43.731911,-79.267673,113:26
2756,Kennedy Rd at Kenmark Blvd,43.729953,-79.26688,113:25
2760,Kennedy Rd at Merrian Rd,43.727384,-79.265764,113:24
2762,Kennedy Rd at St Clair Ave East North Side,43.716845,-79.261256,113:20
2764,Kennedy Rd at Summer Dr North Side,43.722225,-79.263563,113:22
2766,Kingston Rd at Beech Ave,43.680164,-79.290892,404:47
2767,Kingston Rd at Beech Ave,43.680314,-79.29052,322:4|404:44
2768,Kingston Rd at Bingham Ave,43.680647,-79.285096,404:49
2770,Kingston Rd at Brookside Dr,43.677113,-79.303837,322:8
2772,Kingston Rd at Columbine Ave,43.671675,-79.310365,322:11
2775,Kingston Rd at Dundas St East,43.670087,-79.311229,322:12
2777,Kingston Rd at Elmer Ave,43.67582,-79.305884,322:9
2779,Kingston Rd at Glen Manor Dr,43.679631,-79.294644,404:46
2783,Kingston Rd at Lee Ave,43.678324,-79.300903,322:7
2785,Kingston Rd at Main St,43.679023,-79.297762,322:6
2794,Kingston Rd at Scarborough Rd,43.680468,-79.287193,404:48
2795,Kingston Rd at Scarborough Rd,43.680614,-79.287061,322:3|404:43
2813,Lawrence Ave East at Blaine Dr,43.734799,-79.35908,162:15
2815,Lawrence Ave East at Leslie St West Side,43.734608,-79.356821,162:14
2817,Lawrence Ave East at Mildenhall Rd,43.728507,-79.386361,162:30
2819,Lawrence Ave East at Mt Pleasant Rd,43.726022,-79.397414,124:4|352:62
2820,Lawrence Ave East at Tremont Cres (East) West Side,43.735828,-79.350249,162:12
2822,Lawrence Ave East at Tremont Cres (West) West Side,43.735106,-79.353626,162:13
2824,Lawrence Ave West at Jane St,43.702738,-79.504198,352:28|79:37|952:12
2834,44 Longbourne Dr,43.680204,-79.568671,111:28
2835,Longbourne Dr at Martin Grove Rd West Side,43.680803,-79.566618,111:27
2837,Longbourne Dr at Redgrave Dr,43.67925,-79.570117,111:29
2838,Longbourne Dr at Willowridge Rd,43.677937,-79.571914,111:30
2839,Bingham Loop,43.68146,-79.285,322:1
2852,Lumsden Ave at Westlake Ave,43.694557,-79.307848,62:5
2855,Main St at Doncaster Ave,43.691558,-79.303255,87:2
2860,Markham Rd at Kingston Rd North Side,43.739442,-79.217165,102:24|902:9
2861,Markham Rd at Markanna Dr,43.740623,-79.217674,102:25
2865,Martin Grove Rd at Richgrove Dr North Side,43.677322,-79.564238,111:25|46:22
2866,Martin Grove Rd at Sedgeley Dr,43.679286,-79.565154,111:26|46:23
2872,McCowan Rd at Finch Ave East North Side,43.808611,-79.266562,129:18
2873,McCowan Rd at Sandhurst Cir (North),43.811497,-79.268991,129:19
2877,McNicoll Ave at Bedle Ave,43.799485,-79.35716,42:22
2879,McNicoll Ave at Birchmount Rd,43.808458,-79.311412,42:36
2880,McNicoll Ave at Brahms Ave,43.799614,-79.360212,42:21
2882,McNicoll Ave at Eagle Point Rd,43.804986,-79.326598,42:31
2883,McNicoll Ave at Clansman Blvd,43.801929,-79.363231,42:20
2885,McNicoll Ave at Don Mills Rd,43.799544,-79.35439,42:23
2889,McNicoll Ave at Hines Dr,43.801462,-79.348424,42:25
2891,McNicoll Ave at La Peer Blvd,43.807417,-79.315865,42:34
2893,McNicoll Ave at Michael Dr,43.803117,-79.365198,42:19
2895,McNicoll Ave at Mogul Dr,43.799755,-79.351958,42:24
2897,McNicoll Ave at Myers Lane,43.802859,-79.368176,42:18
2899,1055 McNicoll Ave,43.803997,-79.333326,42:29
2900,McNicoll Ave at Pharmacy Ave,43.80393,-79.331097,42:30
2903,McNicoll Ave at Placer Crt,43.803283,-79.342119,42:26
2905,McNicoll Ave at Victoria Park Ave East Side,43.804215,-79.335379,42:28
2907,McNicoll Ave at Opposite Walkway to Hawkshead Cres,43.807964,-79.313688,42:35
2909,McNicoll Ave at Warden Ave,43.80617,-79.321258,42:33
2927,Millwood Rd at Overlea Blvd South Side,43.701557,-79.352492,100:28|72:17
2928,1275 Morningside Ave,43.803431,-79.200051,116:41
2930,1315 Morningside Ave,43.805598,-79.20091,116:42
2932,345 Morningside Ave,43.775468,-79.188826,116:33|12:49|334:66|905:10
2933,Morningside Ave at Tams Rd,43.791907,-79.195301,116:37
2935,Morningside Ave at Casebridge Crt,43.808784,-79.202489,116:43
2937,Morningside Ave at Coronation Dr North Side,43.762152,-79.183604,116:27|334:59
2940,Morningside Ave at Danzig St,43.764773,-79.184746,116:28|334:60
2942,Morningside Ave at Ellesmere Rd,43.785187,-79.193109,116:35|12:51|905:11
2944,Morningside Ave at Fordover Dr,43.75464,-79.180318,116:25|334:57
2946,Morningside Ave at Greyabbey Trail North Side,43.753468,-79.179805,116:24|334:56
2948,Morningside Ave at Morningview Trail,43.813343,-79.206063,116:45|131:33
2952,Morningside Ave at Lawrence Ave East South Side,43.768225,-79.186029,116:30|334:62
2954,Morningside Ave at Ling Rd,43.766498,-79.185497,116:29|334:61
2958,Morningside Ave at Military Trail,43.788865,-79.19396,116:36
2959,Morningside Ave at Milner Ave,43.80012,-79.198796,116:39
2962,Morningside Ave at Opposite Morningside Park,43.780882,-79.19135,116:34|12:50|334:67
2964,Morningside Ave at Pixley Cres,43.760016,-79.182665,116:26|334:58
2965,Morningside Ave at Sewells Rd North Side,43.816633,-79.21143,116:46
2966,Morningside Ave at Sheppard Ave East,43.801848,-79.199507,116:40
2968,Morningside Ave at Tefft Rd,43.772365,-79.187508,116:32|12:48|334:65
2970,1415 Morningside Ave,43.810785,-79.203418,116:44|131:32
2977,46 Overlea Blvd,43.706973,-79.34627,100:25
2978,Overlea Blvd at Don Mills Rd West Side,43.709806,-79.335392,100:22|403:23|72:8
2979,Overlea Blvd at Millwood Rd East Side,43.702452,-79.35223,25:11|325:24|88:19
2980,Overlea Blvd at Leaside Park Dr East Side,43.703699,-79.350961,25:12|325:25|88:20
2986,Overlea Blvd at William Morgan Dr West Side,43.708042,-79.341737,100:23|403:24|72:9
2987,Overlea Blvd at William Morgan Dr,43.707837,-79.341551,25:16|325:33
2988,Overlea Blvd at East York Town Centre (East Side),43.706974,-79.345216,25:14
2989,Pape Ave at Fulton Ave South Side,43.683787,-79.346784,72:24
2990,Pape Ave at Canning Ave,43.682431,-79.346265,72:25
2991,Pape Ave at Cosburn Ave,43.689301,-79.348704,325:20
2992,Pape Ave at Cosburn Ave,43.689497,-79.348949,72:21
2993,Pape Ave at Floyd Ave,43.687418,-79.347965,325:19
2994,Pape Ave at Floyd Ave,43.687582,-79.348221,72:22
2999,Pape Ave at Mortimer Ave,43.685674,-79.347319,325:18
3000,Pape Ave at Mortimer Ave,43.685846,-79.347563,72:23
3004,Pape Ave at Selkirk St,43.68208,-79.345945,325:17
3008,Pape Ave at Torrens Ave North Side,43.691684,-79.349574,325:21
3014,Park Lane Cir at Lawrence Ave East,43.731803,-79.371931,162:24
3016,19 Park Lane Cir,43.735003,-79.375792,162:25
3018,Park Lane Cir at Post Rd,43.73689,-79.37811,162:26
3020,Opposite 60 Park Lane Cir,43.729425,-79.367231,162:23
3021,Pine St at Lawrence Ave West,43.701353,-79.507916,79:40
3023,Post Rd at Bayview Ave,43.736627,-79.380514,162:27
3029,Queen St East at Alton Ave,43.66388,-79.327688,31:15
3092,195 Rexleigh Dr,43.704609,-79.305535,23:1
3094,Rexleigh Dr at St Clair Ave East,43.706475,-79.30699,23:2
3106,Sheppard Ave West at Bakersfield St West Side - Downsview Park Station,43.754319,-79.480593,101:27|106:7|108:7|384:21|84:22|984:8
3108,Sheppard Ave West at Chesswood Dr,43.755612,-79.473803,106:6|108:6|384:20|84:21
3113,Sheppard Ave West at Tuscan Gate,43.752994,-79.482768,101:28|106:8|108:8|384:22|84:23
3117,Sherway Gardens Rd at Sherway Gate (Mall),43.609729,-79.558438,123:15
3118,St Clair Ave East at Glen Eden Cres,43.706846,-79.305951,23:3
3119,St Clair Ave East at Glenburn Ave,43.708511,-79.29844,23:6
3120,St Clair Ave East at Plaxton Dr,43.707535,-79.302772,23:4
3121,St Clair Ave East at Squires Ave,43.707958,-79.300873,23:5
3122,St Clair Ave East at Victoria Park Ave,43.708726,-79.296441,23:7
3123,St Regis Cres at Keele St,43.754743,-79.487887,108:11
3124,St Regis Cres at St Regis Cres North West Side,43.755144,-79.486134,108:10
3129,Townsend Rd at Freshmeadow Dr,43.810118,-79.356868,25:57|325:72|51:55
3160,Warden Ave at Firvalley Crt,43.703737,-79.277715,69:4
3162,682 Warden Ave,43.705852,-79.278599,69:3
3163,Warden Ave at Burn Hill Rd,43.700304,-79.276248,69:6
3164,Warden Ave at Cataraqui Cres,43.70247,-79.277192,69:5
3166,Westlake Ave at Hamstead Ave,43.696423,-79.309042,87:9
3167,Westlake Ave at Hamstead Ave,43.696561,-79.309265,404:17
3168,Westlake Ave at Wallington Ave,43.695028,-79.308431,87:8
3169,The West Mall at Sherway Dr - Trillium Health Centre (South Stop),43.609417,-79.559813,123:14|123:18|15:35|315:35
3172,William R Allen Rd at Sheppard Ave West,43.750021,-79.463105,105:2
3174,Willowridge Rd at Richgrove Dr,43.675751,-79.568602,111:31
3177,Wilmington Ave at Codsell Ave,43.755325,-79.45387,104:19
3179,Wilmington Ave at Combe Ave,43.759692,-79.455693,104:17
3183,Wilmington Ave at Overbrook Pl,43.762891,-79.456989,104:16
3184,Wilmington Ave at Purdon Dr,43.767875,-79.459821,104:14
3186,Wilmington Ave at Searle Ave,43.757376,-79.454731,104:18
3187,Wilmington Ave at Sheppard Ave West,43.752832,-79.452277,104:20
3196,Woodbine Ave at Barker Ave,43.694244,-79.316363,404:10|91:5
3197,Woodbine Ave at Barker Ave South Side,43.693898,-79.316444,93:13
3198,Woodbine Ave at Cosburn Ave,43.696303,-79.31725,404:11|91:6
3199,Woodbine Ave at Lumsden Ave,43.692652,-79.31567,91:4
3200,Woodbine Ave at Milverton Blvd,43.688716,-79.313974,91:2
3201,Woodbine Ave at Milverton Blvd,43.689268,-79.314445,93:16
3202,Woodbine Ave at Mortimer Ave,43.692924,-79.316029,93:14
3203,Woodbine Ave at Sammon Ave,43.69101,-79.314957,91:3
3204,Woodbine Ave at Sammon Ave,43.69125,-79.315303,93:15
3205,Wright Ave at Gibson Ave West Side,43.700147,-79.5065,79:39
3206,Wright Ave at Jane St West Side,43.700766,-79.503809,79:38
3212,Yonge St at Bishop Ave North Side - Finch Station,43.782039,-79.415929,125:2|42:2
3214,Yonge St at Bloor St West - Bloor Station,43.670441,-79.386954,320:53
3217,Yonge St at Charles St West,43.668841,-79.386282,320:54
3218,Yonge St at College St - College Station,43.661506,-79.38324,320:58
3220,Yonge St at Davenport Rd,43.672987,-79.387984,320:52
3222,Yonge St at Dundas St West - TMU Station,43.656505,-79.381074,320:61
3229,Yonge St at Grosvenor St,43.663103,-79.383899,320:57
3230,Yonge St at College Park,43.659905,-79.382592,320:59
3233,Yonge St at Irwin Ave,43.666768,-79.385426,320:55
3237,Opposite 247 Yonge St - Toronto Eaton Centre,43.654934,-79.380414,320:62
3239,Yonge St at Queen St West - Queen Station,43.65251,-79.379408,320:64
3241,Yonge St at Richmond St West,43.651769,-79.379085,320:65
3244,Yonge St at Shuter St,43.654147,-79.380123,320:63
3246,Yonge St at Wellesley St West - Wellesley Station,43.665025,-79.3847,320:56
3247,Yonge St at Wellington St West,43.648025,-79.377521,19:21|320:67
3252,York Mills Rd at Birchwood Ave,43.746313,-79.392079,115:7|95:6
3254,York Mills Rd at Cedarwood Ave East Side,43.74593,-79.393792,115:6|95:5
3255,York Mills Rd at Cedarwood Ave West Side,43.745953,-79.394494,122:32|395:72
3257,York Mills Rd at Fenn Ave,43.746927,-79.389067,115:8|95:7
3258,York Mills Rd at Fenn Ave,43.747131,-79.388881,122:30|395:70
3259,York Mills Rd at Glenridge Ave,43.747477,-79.386471,115:9|95:8
3260,York Mills Rd at Hedgewood Rd East Side,43.744875,-79.398732,115:4|78:4|95:3
3262,York Mills Rd at Highland Cres,43.745354,-79.396532,115:5|95:4
3264,York Mills Rd at York Ridge Rd,43.744189,-79.401756,115:3|78:3
3265,York Mills Rd at York Ridge Rd,43.74447,-79.401416,122:35|395:75
3266,Albion Rd at Highway 27,43.744355,-79.607358,73:54
3269,Albion Rd at Carrier Dr,43.74558,-79.61401,73:56
3275,Albion Rd at Martin Grove Rd,43.742028,-79.593932,73:50
3277,1686 Albion Rd,43.742559,-79.597147,73:51
3280,Albion Rd at Silverstone Dr,43.743061,-79.599836,73:52
3283,Albion Rd at Westmore Dr,43.743676,-79.60368,73:53
3285,Opposite 1921 Albion Rd,43.746443,-79.618864,73:57
3286,425 Alliance Ave,43.677459,-79.486506,171:9
3289,Alliance Ave at Jane St,43.676316,-79.495269,171:1
3303,St Regis Cres (South) at Bakersfield St,43.755202,-79.480719,101:30
3323,Belfield Rd at Attwell Dr East Side,43.697942,-79.59228,112:54
3344,Kingston Rd at Victoria Park Ave East Side,43.680773,-79.28358,12:9
3361,Brimley Rd at Kingston Rd North Side,43.719185,-79.240657,69:25
3366,Brimley Rd at St Clair Ave East,43.720738,-79.241307,69:26
3367,Brimley Rd at St Clair Ave East South Side,43.720503,-79.241428,302:47
3369,849 Broadview Ave,43.679214,-79.35811,25:2
3371,Broadview Ave at Danforth Ave,43.676342,-79.359041,62:27|8:38
3377,Brooklawn Ave at Barkdene Hills,43.71686,-79.233802,69:31
3378,Brooklawn Ave at Kingston Rd South Side,43.72161,-79.235893,69:29
3381,Brooklawn Ave at Sloley Rd,43.719584,-79.23492,69:30
3382,Brown's Line at Horner Ave South Side,43.601337,-79.545187,315:43
3383,Brown's Line at Horner Ave,43.601526,-79.545017,110:6|123:6
3384,Brown's Line at Jellicoe Ave,43.5964,-79.542659,110:4|123:4
3385,Brown's Line at Jellicoe Ave South Side,43.596288,-79.542878,315:45
3386,Brown's Line at Lake Shore Blvd West North Side,43.593263,-79.539318,110:3|123:3
3388,Brown's Line at Woodbury Rd,43.59937,-79.54429,315:44
3392,Calvington Dr at Dalsby Rd,43.729585,-79.501502,120:17
3394,Calvington Dr at Exbury Rd,43.730998,-79.495198,120:15
3395,Calvington Dr at Forthbridge Cres,43.728042,-79.503711,120:18
3397,Calvington Dr at Lexfield Ave,43.730181,-79.498916,120:16
3400,Calvington Dr at Roding St,43.731519,-79.492928,120:14
3401,Canarctic Dr at Keele St,43.775507,-79.493063,107:29
3404,Ceramic Rd at Ashwarren Rd,43.757132,-79.484364,101:33
3405,Ceramic Rd at Le Page Crt,43.758851,-79.484719,101:34
3407,Chaplin Cres at Avenue Rd,43.698727,-79.405846,13:21|14:5
3409,Chaplin Cres at Duncannon Dr,43.700339,-79.410496,14:6
3411,Chaplin Cres at Eglinton Ave West,43.702794,-79.417758,33:6
3413,Chaplin Cres at Eglinton Ave West North Side,43.703026,-79.417896,14:9
3414,Chaplin Cres at Eglinton Ave West,43.70236,-79.416376,14:8
3415,340 Chaplin Cres,43.704194,-79.42124,14:10
3418,Chaplin Cres at Oriole Pkwy,43.697933,-79.403071,14:4
3419,Chaplin Cres at Roselawn Ave,43.705299,-79.423672,14:11
3421,Chaplin Cres at Russell Hill Rd West Side,43.702012,-79.415372,14:7
3426,Chesswood Dr at Champagne Dr,43.764125,-79.476417,107:12
3434,Chesswood Dr at Vanley Cres (South),43.759446,-79.477988,107:10
3437,Cliff St at Alliance Ave North Side,43.678591,-79.483787,171:10
3438,Cliff St at Cordella Ave,43.679451,-79.484146,171:11
3466,Davenport Rd at Laughton Ave,43.670202,-79.45596,127:5|168:16
3468,Davenport Rd at Old Weston Rd East Side,43.670892,-79.461898,127:3|168:14
3470,Davenport Rd at Osler St,43.670457,-79.460029,127:4|168:15
3473,Davenport Rd at Symington Ave,43.670556,-79.453794,127:6|168:17
3474,Deauville Lane at Grenoble Dr South Side,43.716123,-79.33018,100:16|34:31
3475,Deauville Lane at St Dennis Dr South Side,43.717713,-79.331085,100:15|34:30|403:17
3482,Opposite 111 Disco Rd,43.700349,-79.599302,112:60
3490,Dundas St West at Chelsea Ave North Side,43.658209,-79.452836,340:2|40:2
3492,Dundas St West at Chestnut Hills Cres,43.653186,-79.524855,40:27
3493,Dundas St West at Dupont St,43.664363,-79.458505,340:5|40:5
3495,Dundas St West at Gilmour Ave,43.665481,-79.479365,30:3
3496,Dundas St West at Gilmour Ave,43.665624,-79.478748,340:10|40:10
3497,Dundas St West at Glenlake Ave North Side,43.660077,-79.453638,340:3|40:3
3499,Dundas St West at Howland St,43.664017,-79.503494,40:20
3500,Dundas St West at Humberside Ave,43.662951,-79.456295,340:4|40:4
3502,Dundas St West at Indian Grove,43.665429,-79.462163,340:6|40:6
3504,Dundas St West at Islington Ave,43.65187,-79.526097,40:28
3505,Dundas St West at Jane St,43.665764,-79.490945,340:15|40:15
3509,Dundas St West at Keele St,43.665465,-79.464324,340:7|40:7
3511,Dundas St West at Nottingham Dr,43.655609,-79.522688,40:26
3512,Dundas St West at Old Dundas St West Side,43.661895,-79.507489,40:21
3514,Dundas St West at Pacific Ave,43.665505,-79.46845,340:8|40:8
3515,Dundas St West at Prince Edward Dr North,43.660808,-79.510304,40:22
3519,Dundas St West at Royalavon Cres,43.645406,-79.531899,40:34
3520,Dundas St West at Royal York Rd,43.658997,-79.515133,40:24
3521,Dundas St West at Runnymede Rd,43.665646,-79.481997,340:11|40:11
3522,Dundas St West at Scarlett Rd,43.665631,-79.499107,40:18
3527,Dundas St West at Willard Ave West Side,43.665718,-79.488659,340:14|40:14
3528,Dundas St West at Windermere Ave,43.665676,-79.48568,340:13|40:13
3536,Eastern Ave at Minto St East Side (Post Office),43.662898,-79.323253,31:19
3539,Eglinton Ave East at Kennedy Station,43.732292,-79.267117,334:31|343:44|43:44
3543,Eighth St at Lake Shore Blvd West North Side,43.60078,-79.506431,337:1
3546,Elmhurst Dr at Cromarty Dr,43.723439,-79.562484,396:45|96:44
3548,Elmhurst Dr at Redwater Dr West Side,43.722909,-79.560199,396:44|96:43
3579,1111 Finch Ave West,43.767047,-79.474414,336:45|36:6
3585,Finch Ave West at Clarkhill St,43.775305,-79.435171,336:56|36:17
3587,Finch Ave West at Dufferin St,43.768624,-79.467298,336:47|36:8
3589,Finch Ave West at Edithvale Dr,43.777055,-79.427166,336:58|36:19
3593,Finch Ave West at Goldfinch Crt East Side,43.772257,-79.450489,336:52|36:13
3608,625 Finch Ave West,43.771463,-79.454512,336:51|36:12
3613,Finch Ave West at Senlac Rd,43.776326,-79.430344,336:57|36:18
3614,685 Finch Ave West,43.770935,-79.456814,336:50|36:11
3620,Finch Ave West at Virgilwood Dr - North York General Finch Branson Site,43.772698,-79.448324,336:53|36:14
3622,Finch Ave West at Wilmington Ave,43.770054,-79.460827,336:49|36:10
3634,Gateway Blvd South Side at Sunny Glenway East Side,43.71162,-79.330353,100:19|403:20|72:5
3637,Gervais Dr at Eglinton Ave East,43.722,-79.336684,191:24
3640,Glencairn Ave at Bathurst St West Side,43.712279,-79.428713,14:15
3642,Glencairn Ave at Caledonia Rd East Side,43.704671,-79.464333,14:31
3645,Glencairn Ave at Capitol Ave,43.707818,-79.449628,14:23
3647,Glencairn Ave at Dalemount Ave,43.71146,-79.432593,14:17
3649,Glencairn Ave at Danesbury Ave,43.708453,-79.446634,14:22
3651,Glencairn Ave at Dufferin St,43.707171,-79.452667,14:24
3653,Glencairn Ave at Englemount Ave,43.710811,-79.435552,14:18
3655,Glencairn Ave at Ennerdale St,43.706808,-79.455427,14:25
3657,Glencairn Ave at Glenmount Ave,43.711963,-79.430158,14:16
3659,Glencairn Ave at Haven Rd,43.706214,-79.458107,14:26
3662,Glencairn Ave at Marlee Ave,43.709079,-79.443655,14:21
3664,Glencairn Ave at Shermount Ave,43.710183,-79.438496,14:19
3666,Glencairn Station,43.709595,-79.441316,14:20
3669,Greenwood Ave at Athletic Ave,43.669611,-79.327576,31:11
3670,Greenwood Ave at Danforth Ave South Side,43.680835,-79.332195,31:5
3672,Greenwood Ave at Dorothy St,43.666158,-79.326125,31:13
3674,Greenwood Ave at Dundas St East,43.667801,-79.326827,31:12
3676,Greenwood Ave at Felstead Ave,43.678111,-79.331096,31:7
3678,Greenwood Ave at Gerrard St East,43.671002,-79.328133,31:10
3680,Greenwood Ave at Ivy Ave,43.673526,-79.329182,31:9
3683,Greenwood Ave at Oakvale Ave South Side,43.6794,-79.331625,31:6
3685,Greenwood Ave at Queen St East,43.664483,-79.325432,31:14
3687,Greenwood Ave at Torbrick Rd South Side,43.675882,-79.330173,31:8
3689,Gateway Blvd at Don Mills Rd,43.710173,-79.334116,100:21|403:22|72:7
3693,Grenoble Dr at Vendome Pl,43.715497,-79.328232,100:17|34:32
3705,Horner Ave at Thirtieth St,43.604156,-79.533871,110:11
3707,Horner Ave at Alderbrae Ave,43.602597,-79.540853,110:8
3709,Toronto South Detention Centre,43.609555,-79.514632,110:18
3710,Horner Ave at Belvia Rd,43.605324,-79.528711,110:13
3711,Horner Ave at Beta St,43.603044,-79.538963,110:9
3714,Horner Ave at Delta St East Side,43.603745,-79.53581,110:10
3716,Horner Ave at Edilou Dr,43.604679,-79.531509,110:12
3719,215 Horner Ave,43.60771,-79.517705,110:17
3721,Horner Ave at Fima Cres,43.60575,-79.526827,110:14
3722,Horner Ave at Judson St,43.611721,-79.51549,110:19
3723,Horner Ave at Kipling Ave,43.607076,-79.520873,110:16
3725,289 Horner Ave,43.606541,-79.523286,110:15
3726,Horner Ave at Sheldon Ave,43.602052,-79.543193,110:7
3730,Hullmar Dr at Bamford Cres,43.768561,-79.529198,35:10
3733,Hullmar Dr at Bloomington Cres (East),43.761282,-79.523517,35:15
3736,Hullmar Dr at Hisey Cres (North),43.772535,-79.528627,35:8
3739,Hullmar Dr at Hisey Cres (South),43.769975,-79.530139,35:9
3740,Hullmar Dr at Monaco Crt,43.76526,-79.527908,35:12
3741,Hullmar Dr at Ruthmar Cres (North),43.763868,-79.526664,35:13
3743,Hullmar Dr at Ruthmar Cres (South),43.762157,-79.526239,35:14
3745,Hullmar Dr at Shoreham Dr,43.767097,-79.528588,35:11
3750,Islington Ave at Gosfield Gate,43.725737,-79.559925,337:47|937:14
3754,Islington Ave at Albion Rd,43.736655,-79.56489,337:51|937:18
3755,Islington Ave at Allenby Ave,43.711273,-79.553078,337:41
3760,Islington Ave at Aylesbury Rd,43.666259,-79.532744,337:26
3761,Islington Ave at Aylesbury Rd,43.666523,-79.533099,37:47
3762,Islington Ave at Barker Ave,43.73177,-79.562725,337:49|937:16
3767,Islington Ave at Bergamot Ave,43.716748,-79.555736,337:43|937:10
3769,Islington Ave at Birmingham St North Side,43.603813,-79.506396,337:3
3771,Islington Ave at Bywood Dr,43.659278,-79.529924,37:50
3773,Islington Ave at Chestnut Hills Cres,43.653052,-79.527003,337:20
3774,1738 Islington Ave - Richview Collegiate,43.678379,-79.538485,37:43
3775,Islington Ave at Cordova Ave North Side,43.648767,-79.525097,337:18
3776,Islington Ave at Deerfoot Rd,43.685138,-79.541182,337:32|405:8
3777,Islington Ave at Dixon Rd,43.696716,-79.546347,337:35|937:7
3778,Islington Ave at Dixon Rd,43.697254,-79.546973,37:36
3779,Islington Ave at Duncanwoods Dr North Side,43.754994,-79.568713,337:58|937:25
3780,Islington Ave at Dundas St West,43.651252,-79.526155,337:19|937:3
3782,Islington Ave at Eglinton Ave West,43.67969,-79.538744,337:30|937:5
3783,Islington Ave at Eglinton Ave West,43.67994,-79.539209,37:42
3785,Islington Ave at Elmhurst Dr,43.723031,-79.558639,337:46|937:13
3787,Islington Ave at Evans Ave,43.618201,-79.510979,110:23|337:7
3788,Islington Ave at Fairway Rd North Side,43.655037,-79.527877,337:21
3789,Islington Ave at Fairway Rd,43.654968,-79.52804,37:52
